{
  "lastUpdated": "2025-11-12T11:18:34.657Z",
  "cities": [
    {
      "name": "B√°novce nad Bebravou",
      "slug": "banovce-nad-bebravou",
      "region": "Trenƒçiansky kraj",
      "description": "Okresn√© mesto v Trenƒçianskom kraji s dostupn√Ωmi taxislu≈æbami pre obyvateƒæov aj n√°v≈°tevn√≠kov. N√°jdite si taxi v B√°novciach nad Bebravou.",
      "metaDescription": "Taxi B√°novce nad Bebravou - Zoznam taxislu≈æieb v B√°novciach nad Bebravou. Spoƒæahliv√© taxi slu≈æby s overen√Ωmi kontaktmi.",
      "keywords": [
        "taxi b√°novce nad bebravou",
        "taxislu≈æba b√°novce",
        "taxi v b√°novciach",
        "objedna≈• taxi b√°novce",
        "taxi b√°novce telef√≥n"
      ],
      "taxiServices": [
        {
          "name": "Euro Taxi BN",
          "phone": "+421902830000",
          "website": "http://www.eurotaxi-bn.sk"
        },
        {
          "name": "LAURA TAXI",
          "phone": "+421944104800",
          "website": null
        },
        {
          "name": "Bn Taxi",
          "phone": "+421904109080",
          "website": null
        }
      ],
      "latitude": 48.7192,
      "longitude": 18.2569
    },
    {
      "name": "Bansk√° Bystrica",
      "slug": "banska-bystrica",
      "region": "Banskobystrick√Ω kraj",
      "description": "Centrum stredn√©ho Slovenska s kvalitnou ponukou taxislu≈æieb. N√°jdite si taxi v Banskej Bystrici.",
      "metaDescription": "Taxi Bansk√° Bystrica - Prehƒæad taxislu≈æieb v Banskej Bystrici. Overen√© taxi slu≈æby s aktu√°lnymi kontaktmi.",
      "keywords": [
        "taxi bansk√° bystrica",
        "taxislu≈æba bansk√° bystrica",
        "taxi v banskej bystrici",
        "objedna≈• taxi bansk√° bystrica",
        "taxi bb"
      ],
      "taxiServices": [
        {
          "name": "3 Taxi B. Bystrica",
          "phone": "+421903654303",
          "website": "https://www.3taxi.sk"
        },
        {
          "name": "ONE TAXI | Bansk√° Bystrica",
          "phone": "+421905442544",
          "website": "http://www.onetaxi.sk"
        },
        {
          "name": "HAL√ì Taxi BB s.r.o.",
          "phone": "+421949453535",
          "website": "http://www.halotaxibb.sk"
        },
        {
          "name": "EXPRES TAXI s.r.o.",
          "phone": "+421902410041",
          "website": "http://www.taxibb.sk"
        },
        {
          "name": "IMPULZ TAXI - Richard Hud√°k",
          "phone": "+421911656545",
          "website": null
        },
        {
          "name": "ECO Hybrid TAXI Bansk√° Bystrica",
          "phone": "+421909110110",
          "website": "http://www.ecohybridtaxi.sk"
        },
        {
          "name": "VIP Taxi s.r.o.",
          "phone": "+421908989000",
          "website": null
        },
        {
          "name": "Fun Taxi",
          "phone": "+4214816777",
          "website": "https://www.instagram.com/fun_taxi_banska_bystrica/"
        },
        {
          "name": "inTAXI Bansk√° Bystrica",
          "phone": "+421940777757",
          "website": "http://www.intaxi.sk"
        }
      ],
      "latitude": 48.7361,
      "longitude": 19.1475
    },
    {
      "name": "Bansk√° ≈†tiavnica",
      "slug": "banska-stiavnica",
      "region": "Banskobystrick√Ω kraj",
      "description": "Historick√© bansk√© mesto zap√≠san√© do UNESCO s dostupn√Ωmi taxislu≈æbami. N√°jdite taxi v Banskej ≈†tiavnici.",
      "metaDescription": "Taxi Bansk√° ≈†tiavnica - Taxislu≈æby v historickej Banskej ≈†tiavnici. Spoƒæahliv√© taxi slu≈æby pre obyvateƒæov a turistov.",
      "keywords": [
        "taxi bansk√° ≈°tiavnica",
        "taxislu≈æba bansk√° ≈°tiavnica",
        "taxi v banskej ≈°tiavnici",
        "objedna≈• taxi ≈°tiavnica",
        "taxi ≈°tiavnica"
      ],
      "taxiServices": [
        {
          "name": "Taxi Bansk√° ≈†tiavnica - J√°n Molek",
          "phone": "+421919345765",
          "website": "http://www.taxibs.sk"
        },
        {
          "name": "JOMA Taxi",
          "phone": "+421910180380",
          "website": "http://www.jomataxi.sk"
        },
        {
          "name": "TOP TAXI Bansk√° ≈†tiavnica",
          "phone": "+421950303530",
          "website": null
        },
        {
          "name": "CORTO TAXI NONSTOP",
          "phone": "+421910714660",
          "website": null
        },
        {
          "name": "ROYAL-TAXI",
          "phone": "+421911082829",
          "website": ""
        },
        {
          "name": "LO≈ΩEK PETER TAXI BANSK√Å ≈†TIAVNICA",
          "phone": "+421917984430",
          "website": null
        },
        {
          "name": "BeriTaxi",
          "phone": "+421902345673",
          "website": null
        },
        {
          "name": "Taxi Fero",
          "phone": "+421905949671",
          "website": "https://www.ferotaxi.sk"
        }
      ],
      "latitude": 48.4583,
      "longitude": 18.8917
    },
    {
      "name": "Bardejov",
      "slug": "bardejov",
      "region": "Pre≈°ovsk√Ω kraj",
      "description": "Historick√© k√∫peƒæn√© mesto s kvalitnou dopravnou infra≈°trukt√∫rou. Vyberte si overen√© taxi v Bardejove.",
      "metaDescription": "Taxi Bardejov - Kompletn√Ω zoznam taxislu≈æieb v Bardejove. R√Ωchle a spoƒæahliv√© taxi slu≈æby s kontaktmi.",
      "keywords": [
        "taxi bardejov",
        "taxislu≈æba bardejov",
        "taxi v bardejove",
        "objedna≈• taxi bardejov",
        "taxi bardejov ceny"
      ],
      "taxiServices": [
        {
          "name": "Taxi Roman - NON-STOP taxislu≈æba v Bardejove a preprava os√¥b na letisk√°, viac miestna doprava.",
          "phone": "+421850221221",
          "website": "https://taxiroman.sk"
        },
        {
          "name": "PEPIS TAXI Bardejov",
          "phone": "+421944450777",
          "website": null
        },
        {
          "name": "BOGY TAXI BARDEJOV ",
          "phone": "+421940004002",
          "website": null
        },
        {
          "name": "Taxi Andrea Bardejov",
          "phone": "+421917333550",
          "website": null
        },
        {
          "name": "MM taxi - VIPKA",
          "phone": "+421949246565",
          "website": "https://www.mmtaxidrink.eu"
        },
        {
          "name": "TAXI PIR√ÅTI",
          "phone": "+4215416666",
          "website": ""
        },
        {
          "name": "GoldenTAXI",
          "phone": "+421948948888",
          "website": null
        },
        {
          "name": "TAXI PETER BARDEJOV - BARDEJOVSK√â K√öPELE",
          "phone": "+421949570576",
          "website": null
        },
        {
          "name": "Taxi Stenƒèo PJ Bard, s.r.o.",
          "phone": "+421908501101",
          "website": null
        },
        {
          "name": "Taxi Svam",
          "phone": "+421949377399",
          "website": null
        },
        {
          "name": "VIP TRANSFERY BARDEJOV",
          "phone": "+421948787807",
          "website": null
        }
      ],
      "latitude": 49.2939,
      "longitude": 21.2739
    },
    {
      "name": "Bojnice",
      "slug": "bojnice",
      "region": "Trenƒçiansky kraj",
      "description": "K√∫peƒæn√© mesto s rozpr√°vkov√Ωm z√°mkom. N√°jdite spoƒæahliv√© taxi v Bojniciach pre pohodln√∫ dopravu.",
      "metaDescription": "Taxi Bojnice - Taxislu≈æby v Bojniciach. Overen√© taxi slu≈æby pre turistov a obyvateƒæov.",
      "keywords": [
        "taxi bojnice",
        "taxislu≈æba bojnice",
        "taxi v bojniciach",
        "objedna≈• taxi bojnice",
        "taxi bojnice z√°mok"
      ],
      "taxiServices": [
        {
          "name": "Taxi Bojnice - Nonstop",
          "phone": "+421918266886",
          "website": "http://www.taxibojnice.sk"
        },
        {
          "name": "Kov√°ƒç Peter, Ing. Extra taxi",
          "phone": "+421948706656",
          "website": null
        }
      ],
      "latitude": 48.7803,
      "longitude": 18.5775
    },
    {
      "name": "Bratislava",
      "slug": "bratislava",
      "region": "Bratislavsk√Ω kraj",
      "description": "Hlavn√© mesto Slovenska s najv√§ƒç≈°√≠m poƒçtom taxislu≈æieb. N√°jdite si spoƒæahliv√© taxi v Bratislave kedykoƒævek potrebujete.",
      "metaDescription": "Taxi Bratislava - N√°jdite spoƒæahliv√© taxislu≈æby v Bratislave. Kompletn√Ω zoznam taxi slu≈æieb s kontaktmi a webov√Ωmi str√°nkami.",
      "keywords": [
        "taxi bratislava",
        "taxislu≈æba bratislava",
        "taxi v bratislave",
        "objedna≈• taxi bratislava",
        "taxi bratislava ceny"
      ],
      "taxiServices": [
        {
          "name": "Taxi-Bratislava-City üöï Spoƒæahliv√° taxi slu≈æba 24/7",
          "phone": "+421903106943",
          "website": "https://taxi-bratislava-city.sk"
        },
        {
          "name": "Top-Taxi Bratislava",
          "phone": "+421910177333",
          "website": "http://www.taxibratislava.com"
        },
        {
          "name": "TAXI-TAXI Bratislava",
          "phone": "+421910467999",
          "website": "https://www.taxi-taxi.sk"
        },
        {
          "name": "Taxi Bratislava NonStop - Drink Taxi",
          "phone": "+421911516202",
          "website": "http://www.taxi-bratislava.eu"
        },
        {
          "name": "Taxi Vienna Bratislava",
          "phone": "+421903110018",
          "website": "https://taxi-vienna-bratislava.com"
        },
        {
          "name": "Limousineway Taxi Vienna Bratislava",
          "phone": "+421911888801",
          "website": "http://www.limousineway.com"
        },
        {
          "name": "Bratislava - Vienna airport taxi",
          "phone": "+421903853359",
          "website": "https://bratislava-airport-taxi.com"
        },
        {
          "name": "5 STAR TAXI BRATISLAVA",
          "phone": "+421915515568",
          "website": "https://5startaxi.sk"
        },
        {
          "name": "A Taxi Bratislava",
          "phone": "+421902404929",
          "website": "https://a-taxi.sk"
        },
        {
          "name": "Bratislava Taxi - Drink Taxi",
          "phone": "+421911030399",
          "website": "https://bratislava-taxi.sk"
        },
        {
          "name": "Hotel Taxis",
          "phone": "+4212/20793242",
          "website": "https://hoteltaxis.sk"
        },
        {
          "name": "Hello Tik Tak Taxi",
          "phone": "+421905216321",
          "website": "http://www.hellotaxi.sk"
        },
        {
          "name": "Lacn√© taxi Bratislava 02/16400",
          "phone": "+421216400",
          "website": "http://www.lacne-taxi-bratislava.sk"
        },
        {
          "name": "Taxi Bratislava Schwechat",
          "phone": "+421944457600",
          "website": "https://www.taxi-bratislava-schwechat.sk"
        }
      ],
      "latitude": 48.1486,
      "longitude": 17.1077
    },
    {
      "name": "Brezno",
      "slug": "brezno",
      "region": "Banskobystrick√Ω kraj",
      "description": "Centrum Horehronia s dostupn√Ωmi taxislu≈æbami. Objednajte si taxi v Brezne pre pohodln√∫ dopravu.",
      "metaDescription": "Taxi Brezno - Zoznam taxislu≈æieb v Brezne. Spoƒæahliv√© taxi slu≈æby s overen√Ωmi kontaktmi.",
      "keywords": [
        "taxi brezno",
        "taxislu≈æba brezno",
        "taxi v brezne",
        "objedna≈• taxi brezno",
        "taxi brezno telef√≥n"
      ],
      "taxiServices": [
        {
          "name": "PVS Taxi - Brezno",
          "phone": "+421905634444",
          "website": "http://www.pvsa.sk"
        },
        {
          "name": "TD Taxi - Tom√°≈° Demian",
          "phone": "+421902493046",
          "website": "http://www.tdtaxi.sk"
        },
        {
          "name": "R.S.T. Taxi & Ski Taxi 6+1 - Podbrezov√° - Brezno a okolie",
          "phone": "+421904334971",
          "website": "https://taxipodbrezova.sk"
        },
        {
          "name": "BREZNO PK - TAXI a oklie",
          "phone": "+421905704880",
          "website": "https://www.brezno-taxi.eu"
        }
      ],
      "latitude": 48.8033,
      "longitude": 19.6367
    },
    {
      "name": "Brezov√° pod Bradlom",
      "slug": "brezova-pod-bradlom",
      "region": "Trnavsk√Ω kraj",
      "description": "Mesto pri pam√§tn√≠ku M. R. ≈†tef√°nika s dostupn√Ωmi taxislu≈æbami. N√°jdite taxi v Brezovej pod Bradlom.",
      "metaDescription": "Taxi Brezov√° pod Bradlom - Taxislu≈æby v Brezovej pod Bradlom. Overen√© taxi slu≈æby s kontaktmi.",
      "keywords": [
        "taxi brezov√° pod bradlom",
        "taxislu≈æba brezov√°",
        "taxi v brezovej",
        "objedna≈• taxi brezov√°",
        "taxi bradlo"
      ],
      "taxiServices": [
        {
          "name": "Taxi Myjava",
          "phone": "+421907277588",
          "website": "http://www.taxi-myjava.sk"
        },
        {
          "name": "Taxi La Vita Myjava",
          "phone": "+421940095050",
          "website": "http://www.taxilavita.sk"
        },
        {
          "name": "TAXI MY",
          "website": "",
          "phone": "+421 948 333 338"
        }
      ],
      "latitude": 48.6667,
      "longitude": 17.5167
    },
    {
      "name": "Bytƒça",
      "slug": "bytca",
      "region": "≈Ωilinsk√Ω kraj",
      "description": "Okresn√© mesto v ≈Ωilinskom kraji s dostupn√Ωmi taxislu≈æbami. Vyberte si spoƒæahliv√© taxi v Bytƒçi.",
      "metaDescription": "Taxi Bytƒça - Kompletn√Ω zoznam taxislu≈æieb v Bytƒçi. R√Ωchle a overen√© taxi slu≈æby.",
      "keywords": [
        "taxi bytƒça",
        "taxislu≈æba bytƒça",
        "taxi v bytƒçi",
        "objedna≈• taxi bytƒça",
        "taxi bytƒça telef√≥n"
      ],
      "taxiServices": [
        {
          "name": "Daniel Adamov - Dami",
          "phone": "+421904860846",
          "website": null
        },
        {
          "name": "Foxi taxi",
          "website": "",
          "phone": "+421 903 800 300"
        },
        {
          "name": "Bytƒça Taxi",
          "website": "",
          "phone": "+421 910 109 333"
        },
        {
          "name": "JP Taxi",
          "website": "",
          "phone": "+421 901 711 831"
        }
      ],
      "latitude": 49.2239,
      "longitude": 18.5583
    },
    {
      "name": "ƒåadca",
      "slug": "cadca",
      "region": "≈Ωilinsk√Ω kraj",
      "description": "Centrum Kys√∫c s kvalitnou ponukou taxislu≈æieb. N√°jdite si overen√© taxi v ƒåadci.",
      "metaDescription": "Taxi ƒåadca - Prehƒæad taxislu≈æieb v ƒåadci. Spoƒæahliv√© taxi slu≈æby pre Kysuce.",
      "keywords": [
        "taxi ƒçadca",
        "taxislu≈æba ƒçadca",
        "taxi v ƒçadci",
        "objedna≈• taxi ƒçadca",
        "taxi ƒçadca ceny"
      ],
      "taxiServices": [
        {
          "name": "Tip Top Taxi ƒåadca",
          "phone": "+421905566966",
          "website": "http://www.tiptoptaxi.sk"
        },
        {
          "name": "PROFI TAXI ƒåADCA",
          "phone": "+421910100440",
          "website": "http://www.profitaxicadca.sk"
        },
        {
          "name": "DALLAS TAXI CADCA",
          "phone": "+421950634424",
          "website": "https://www.dallas-evl.sk"
        },
        {
          "name": "KUƒåO TAXI ƒåADCA",
          "phone": "+421905385060",
          "website": null
        },
        {
          "name": "TAXI AFTER DARK-ƒåADCA",
          "phone": "+421903161616",
          "website": null
        },
        {
          "name": "Relly Taxi",
          "phone": "+421800101020",
          "website": null
        },
        {
          "name": "SPEED TAXI",
          "phone": "+421910153143",
          "website": null
        },
        {
          "name": "OK Taxi",
          "phone": "+42141/4326666",
          "website": null
        },
        {
          "name": "Taxi Express",
          "phone": "+42141/4332111",
          "website": null
        }
      ],
      "latitude": 49.435,
      "longitude": 18.7889
    },
    {
      "name": "Detva",
      "slug": "detva",
      "region": "Banskobystrick√Ω kraj",
      "description": "Centrum Podpoƒæania s dostupn√Ωmi taxislu≈æbami. Objednajte si taxi v Detve.",
      "metaDescription": "Taxi Detva - Taxislu≈æby v Detve. Overen√© taxi slu≈æby s aktu√°lnymi kontaktmi.",
      "keywords": [
        "taxi detva",
        "taxislu≈æba detva",
        "taxi v detve",
        "objedna≈• taxi detva",
        "taxi detva telef√≥n"
      ],
      "taxiServices": [
        {
          "name": "Express TAXI Detva",
          "phone": "+421910888250",
          "website": null
        },
        {
          "name": "GOLD TAXI DETVA",
          "phone": "+421949474323",
          "website": null
        },
        {
          "name": "RK TAXI ‚Äì DETVA",
          "phone": "+421944384666",
          "website": "http://www.rktaxi.sk"
        },
        {
          "name": "Taxi-Ali Detva",
          "phone": "+421910364714",
          "website": "https://taxi-ali9.webnode.sk"
        }
      ],
      "latitude": 48.5583,
      "longitude": 19.4192
    },
    {
      "name": "Dob≈°in√°",
      "slug": "dobsina",
      "region": "Ko≈°ick√Ω kraj",
      "description": "Bansk√© mesto s ƒæadovou jasky≈àou. N√°jdite spoƒæahliv√© taxi v Dob≈°inej.",
      "metaDescription": "Taxi Dob≈°in√° - Zoznam taxislu≈æieb v Dob≈°inej. Taxi slu≈æby pre turistov a obyvateƒæov.",
      "keywords": [
        "taxi dob≈°in√°",
        "taxislu≈æba dob≈°in√°",
        "taxi v dob≈°inej",
        "objedna≈• taxi dob≈°in√°",
        "taxi dob≈°in√° jasky≈àa"
      ],
      "taxiServices": [
        {
          "name": "J√°n Ambroz",
          "website": "",
          "phone": "058/788 55 95"
        },
        {
          "name": "Du≈°an taxi Dob≈°in√°",
          "website": "",
          "phone": "0951 610 248"
        }
      ],
      "latitude": 48.8233,
      "longitude": 20.3692
    },
    {
      "name": "Doln√Ω Kub√≠n",
      "slug": "dolny-kubin",
      "region": "≈Ωilinsk√Ω kraj",
      "description": "Okresn√© mesto v Orave s rozvinutou sie≈•ou taxislu≈æieb. Vyberte si taxi v Dolnom Kub√≠ne.",
      "metaDescription": "Taxi Doln√Ω Kub√≠n - Kompletn√Ω prehƒæad taxislu≈æieb v Dolnom Kub√≠ne. Spoƒæahliv√© taxi slu≈æby.",
      "keywords": [
        "taxi doln√Ω kub√≠n",
        "taxislu≈æba doln√Ω kub√≠n",
        "taxi v dolnom kub√≠ne",
        "objedna≈• taxi doln√Ω kub√≠n",
        "taxi orava"
      ],
      "taxiServices": [
        {
          "name": "Drink Taxi",
          "phone": "+421905618000",
          "website": "http://www.autopozicovnaorava.sk"
        },
        {
          "name": "Fan-TAXI Doln√Ω Kub√≠n",
          "phone": "+421904231231",
          "website": null
        },
        {
          "name": "LS TAXI Doln√Ω Kub√≠n",
          "phone": "+421902885555",
          "website": null
        },
        {
          "name": "GOLDEN TAXI",
          "phone": "+421910204204",
          "website": null
        }
      ],
      "latitude": 49.21,
      "longitude": 19.3
    },
    {
      "name": "Dubnica nad V√°hom",
      "slug": "dubnica-nad-vahom",
      "region": "Trenƒçiansky kraj",
      "description": "Priemyseln√© mesto s kvalitnou dopravnou infra≈°trukt√∫rou. N√°jdite taxi v Dubnici nad V√°hom.",
      "metaDescription": "Taxi Dubnica nad V√°hom - Taxislu≈æby v Dubnici nad V√°hom. Overen√© taxi slu≈æby s kontaktmi.",
      "keywords": [
        "taxi dubnica nad v√°hom",
        "taxislu≈æba dubnica",
        "taxi v dubnici",
        "objedna≈• taxi dubnica",
        "taxi dubnica ceny"
      ],
      "taxiServices": [],
      "latitude": 48.9603,
      "longitude": 18.1714
    },
    {
      "name": "Dudince",
      "slug": "dudince",
      "region": "Banskobystrick√Ω kraj",
      "description": "K√∫peƒæn√© mesto s dostupn√Ωmi taxislu≈æbami. Objednajte si taxi v Dudinciach.",
      "metaDescription": "Taxi Dudince - Zoznam taxislu≈æieb v Dudinciach. Taxi slu≈æby pre k√∫peƒæn√Ωch host√≠ a obyvateƒæov.",
      "keywords": [
        "taxi dudince",
        "taxislu≈æba dudince",
        "taxi v dudinciach",
        "objedna≈• taxi dudince",
        "taxi dudince k√∫pele"
      ],
      "taxiServices": [],
      "latitude": 48.1667,
      "longitude": 18.8667
    },
    {
      "name": "Gabƒç√≠kovo",
      "slug": "gabcikovo",
      "region": "Trnavsk√Ω kraj",
      "description": "Mesto pri Dunaji s vodn√Ωm diele. N√°jdite spoƒæahliv√© taxi v Gabƒç√≠kove.",
      "metaDescription": "Taxi Gabƒç√≠kovo - Taxislu≈æby v Gabƒç√≠kove. Overen√© taxi slu≈æby s aktu√°lnymi kontaktmi.",
      "keywords": [
        "taxi gabƒç√≠kovo",
        "taxislu≈æba gabƒç√≠kovo",
        "taxi v gabƒç√≠kove",
        "objedna≈• taxi gabƒç√≠kovo",
        "taxi gabƒç√≠kovo telef√≥n"
      ],
      "taxiServices": [],
      "latitude": 47.8933,
      "longitude": 17.5817
    },
    {
      "name": "Galanta",
      "slug": "galanta",
      "region": "Trnavsk√Ω kraj",
      "description": "Okresn√© mesto v Trnavskom kraji s rozvinut√Ωmi taxislu≈æbami. Vyberte si taxi v Galante.",
      "metaDescription": "Taxi Galanta - Kompletn√Ω zoznam taxislu≈æieb v Galante. R√Ωchle a spoƒæahliv√© taxi slu≈æby.",
      "keywords": [
        "taxi galanta",
        "taxislu≈æba galanta",
        "taxi v galante",
        "objedna≈• taxi galanta",
        "taxi galanta ceny"
      ],
      "taxiServices": [],
      "latitude": 48.19,
      "longitude": 17.7267
    },
    {
      "name": "Gelnica",
      "slug": "gelnica",
      "region": "Ko≈°ick√Ω kraj",
      "description": "Historick√© bansk√© mesto v Spi≈°i. N√°jdite overen√© taxi v Gelnici.",
      "metaDescription": "Taxi Gelnica - Taxislu≈æby v Gelnici. Spoƒæahliv√© taxi slu≈æby s kontaktmi.",
      "keywords": [
        "taxi gelnica",
        "taxislu≈æba gelnica",
        "taxi v gelnici",
        "objedna≈• taxi gelnica",
        "taxi gelnica telef√≥n"
      ],
      "taxiServices": [],
      "latitude": 48.85,
      "longitude": 20.9333
    },
    {
      "name": "Giraltovce",
      "slug": "giraltovce",
      "region": "Pre≈°ovsk√Ω kraj",
      "description": "Okresn√© mesto v Pre≈°ovskom kraji. Objednajte si taxi v Giraltovciach.",
      "metaDescription": "Taxi Giraltovce - Zoznam taxislu≈æieb v Giraltovciach. Overen√© taxi slu≈æby.",
      "keywords": [
        "taxi giraltovce",
        "taxislu≈æba giraltovce",
        "taxi v giraltovciach",
        "objedna≈• taxi giraltovce",
        "taxi giraltovce ceny"
      ],
      "taxiServices": [],
      "latitude": 49.0992,
      "longitude": 21.5033
    },
    {
      "name": "Hanu≈°ovce nad Topƒæou",
      "slug": "hanusovce-nad-toplou",
      "region": "Pre≈°ovsk√Ω kraj",
      "description": "Mesto v regi√≥ne Zempl√≠n s dostupn√Ωmi taxislu≈æbami. N√°jdite taxi v Hanu≈°ovciach nad Topƒæou.",
      "metaDescription": "Taxi Hanu≈°ovce nad Topƒæou - Taxislu≈æby v Hanu≈°ovciach nad Topƒæou. Taxi slu≈æby s kontaktmi.",
      "keywords": [
        "taxi hanu≈°ovce nad topƒæou",
        "taxislu≈æba hanu≈°ovce",
        "taxi v hanu≈°ovciach",
        "objedna≈• taxi hanu≈°ovce",
        "taxi hanu≈°ovce telef√≥n"
      ],
      "taxiServices": [],
      "latitude": 48.9867,
      "longitude": 21.5067
    },
    {
      "name": "Hlohovec",
      "slug": "hlohovec",
      "region": "Trnavsk√Ω kraj",
      "description": "Historick√© mesto v Trnavskom kraji s kvalitnou ponukou taxislu≈æieb. Vyberte si taxi v Hlohovci.",
      "metaDescription": "Taxi Hlohovec - Kompletn√Ω prehƒæad taxislu≈æieb v Hlohovci. Spoƒæahliv√© taxi slu≈æby.",
      "keywords": [
        "taxi hlohovec",
        "taxislu≈æba hlohovec",
        "taxi v hlohovci",
        "objedna≈• taxi hlohovec",
        "taxi hlohovec ceny"
      ],
      "taxiServices": [],
      "latitude": 48.43,
      "longitude": 17.805
    },
    {
      "name": "Hn√∫≈°≈•a",
      "slug": "hnusta",
      "region": "Banskobystrick√Ω kraj",
      "description": "Mesto v ju≈ænej ƒçasti Slovenska. N√°jdite spoƒæahliv√© taxi v Hn√∫≈°ti.",
      "metaDescription": "Taxi Hn√∫≈°≈•a - Taxislu≈æby v Hn√∫≈°ti. Overen√© taxi slu≈æby s kontaktmi.",
      "keywords": [
        "taxi hn√∫≈°≈•a",
        "taxislu≈æba hn√∫≈°≈•a",
        "taxi v hn√∫≈°ti",
        "objedna≈• taxi hn√∫≈°≈•a",
        "taxi hn√∫≈°≈•a telef√≥n"
      ],
      "taxiServices": [],
      "latitude": 48.6233,
      "longitude": 19.9467
    },
    {
      "name": "Hol√≠ƒç",
      "slug": "holic",
      "region": "Trnavsk√Ω kraj",
      "description": "Pohraniƒçn√© mesto pri ƒåeskej republike. Objednajte si taxi v Hol√≠ƒçi.",
      "metaDescription": "Taxi Hol√≠ƒç - Zoznam taxislu≈æieb v Hol√≠ƒçi. Taxi slu≈æby s aktu√°lnymi kontaktmi.",
      "keywords": [
        "taxi hol√≠ƒç",
        "taxislu≈æba hol√≠ƒç",
        "taxi v hol√≠ƒçi",
        "objedna≈• taxi hol√≠ƒç",
        "taxi hol√≠ƒç ceny"
      ],
      "taxiServices": [],
      "latitude": 48.8117,
      "longitude": 17.1597
    },
    {
      "name": "Humenn√©",
      "slug": "humenne",
      "region": "Pre≈°ovsk√Ω kraj",
      "description": "Okresn√© mesto vo v√Ωchodnej ƒçasti Slovenska s rozvinut√Ωmi taxislu≈æbami. N√°jdite taxi v Humennom.",
      "metaDescription": "Taxi Humenn√© - Kompletn√Ω zoznam taxislu≈æieb v Humennom. R√Ωchle a spoƒæahliv√© taxi slu≈æby.",
      "keywords": [
        "taxi humenn√©",
        "taxislu≈æba humenn√©",
        "taxi v humennom",
        "objedna≈• taxi humenn√©",
        "taxi humenn√© telef√≥n"
      ],
      "taxiServices": [],
      "latitude": 48.935,
      "longitude": 21.9117
    },
    {
      "name": "Hurbanovo",
      "slug": "hurbanovo",
      "region": "Nitriansky kraj",
      "description": "Mesto v ju≈ænej ƒçasti Slovenska. Vyberte si overen√© taxi v Hurbanove.",
      "metaDescription": "Taxi Hurbanovo - Taxislu≈æby v Hurbanove. Spoƒæahliv√© taxi slu≈æby s kontaktmi.",
      "keywords": [
        "taxi hurbanovo",
        "taxislu≈æba hurbanovo",
        "taxi v hurbanove",
        "objedna≈• taxi hurbanovo",
        "taxi hurbanovo ceny"
      ],
      "taxiServices": [],
      "latitude": 47.8733,
      "longitude": 18.1917
    },
    {
      "name": "Ilava",
      "slug": "ilava",
      "region": "Trenƒçiansky kraj",
      "description": "Okresn√© mesto v Trenƒçianskom kraji. N√°jdite spoƒæahliv√© taxi v Ilave.",
      "metaDescription": "Taxi Ilava - Prehƒæad taxislu≈æieb v Ilave. Overen√© taxi slu≈æby.",
      "keywords": [
        "taxi ilava",
        "taxislu≈æba ilava",
        "taxi v ilave",
        "objedna≈• taxi ilava",
        "taxi ilava telef√≥n"
      ],
      "taxiServices": [],
      "latitude": 49.005,
      "longitude": 18.2383
    },
    {
      "name": "Jel≈°ava",
      "slug": "jelsava",
      "region": "Banskobystrick√Ω kraj",
      "description": "Historick√© bansk√© mesto. Objednajte si taxi v Jel≈°ave.",
      "metaDescription": "Taxi Jel≈°ava - Taxislu≈æby v Jel≈°ave. Taxi slu≈æby s kontaktmi.",
      "keywords": [
        "taxi jel≈°ava",
        "taxislu≈æba jel≈°ava",
        "taxi v jel≈°ave",
        "objedna≈• taxi jel≈°ava",
        "taxi jel≈°ava ceny"
      ],
      "taxiServices": [],
      "latitude": 48.6317,
      "longitude": 20.2417
    },
    {
      "name": "Ke≈æmarok",
      "slug": "kezmarok",
      "region": "Pre≈°ovsk√Ω kraj",
      "description": "Historick√© spi≈°≈°k√© mesto s bohatou hist√≥riou. N√°jdite taxi v Ke≈æmarku.",
      "metaDescription": "Taxi Ke≈æmarok - Kompletn√Ω zoznam taxislu≈æieb v Ke≈æmarku. Spoƒæahliv√© taxi slu≈æby.",
      "keywords": [
        "taxi ke≈æmarok",
        "taxislu≈æba ke≈æmarok",
        "taxi v ke≈æmarku",
        "objedna≈• taxi ke≈æmarok",
        "taxi ke≈æmarok tatry"
      ],
      "taxiServices": [],
      "latitude": 49.1361,
      "longitude": 20.4333
    },
    {
      "name": "Kol√°rovo",
      "slug": "kolarovo",
      "region": "Nitriansky kraj",
      "description": "Mesto v ju≈ænej ƒçasti Slovenska. Vyberte si taxi v Kol√°rove.",
      "metaDescription": "Taxi Kol√°rovo - Taxislu≈æby v Kol√°rove. Overen√© taxi slu≈æby s kontaktmi.",
      "keywords": [
        "taxi kol√°rovo",
        "taxislu≈æba kol√°rovo",
        "taxi v kol√°rove",
        "objedna≈• taxi kol√°rovo",
        "taxi kol√°rovo telef√≥n"
      ],
      "taxiServices": [],
      "latitude": 47.92,
      "longitude": 17.9933
    },
    {
      "name": "Kom√°rno",
      "slug": "komarno",
      "region": "Nitriansky kraj",
      "description": "Pohraniƒçn√© mesto pri Dunaji s rozvinutou dopravnou infra≈°trukt√∫rou. N√°jdite taxi v Kom√°rne.",
      "metaDescription": "Taxi Kom√°rno - Prehƒæad taxislu≈æieb v Kom√°rne. R√Ωchle a spoƒæahliv√© taxi slu≈æby.",
      "keywords": [
        "taxi kom√°rno",
        "taxislu≈æba kom√°rno",
        "taxi v kom√°rne",
        "objedna≈• taxi kom√°rno",
        "taxi kom√°rno ceny"
      ],
      "taxiServices": [],
      "latitude": 47.7667,
      "longitude": 18.1167
    },
    {
      "name": "Ko≈°ice",
      "slug": "kosice",
      "region": "Ko≈°ick√Ω kraj",
      "description": "Druh√© najv√§ƒç≈°ie mesto Slovenska s kvalitnou ponukou taxislu≈æieb. Vyberte si z overen√Ωch tax√≠kov v Ko≈°iciach.",
      "metaDescription": "Taxi Ko≈°ice - Spoƒæahliv√© taxislu≈æby v Ko≈°iciach. Zoznam overen√Ωch taxi slu≈æieb s aktu√°lnymi kontaktmi a cenami.",
      "keywords": [
        "taxi ko≈°ice",
        "taxislu≈æba ko≈°ice",
        "taxi v ko≈°iciach",
        "objedna≈• taxi ko≈°ice",
        "taxi ko≈°ice ceny"
      ],
      "taxiServices": [],
      "latitude": 48.7164,
      "longitude": 21.2611
    },
    {
      "name": "Kr√°ƒæovsk√Ω Chlmec",
      "slug": "kralovsky-chlmec",
      "region": "Ko≈°ick√Ω kraj",
      "description": "Okresn√© mesto v regi√≥ne Zempl√≠n. Objednajte si taxi v Kr√°ƒæovskom Chlmci.",
      "metaDescription": "Taxi Kr√°ƒæovsk√Ω Chlmec - Taxislu≈æby v Kr√°ƒæovskom Chlmci. Taxi slu≈æby s kontaktmi.",
      "keywords": [
        "taxi kr√°ƒæovsk√Ω chlmec",
        "taxislu≈æba kr√°ƒæovsk√Ω chlmec",
        "taxi v kr√°ƒæovskom chlmci",
        "objedna≈• taxi chlmec",
        "taxi chlmec telef√≥n"
      ],
      "taxiServices": [],
      "latitude": 48.4083,
      "longitude": 21.9817
    },
    {
      "name": "Kremnica",
      "slug": "kremnica",
      "region": "Banskobystrick√Ω kraj",
      "description": "Historick√© bansk√© a mincov√© mesto. N√°jdite spoƒæahliv√© taxi v Kremnici.",
      "metaDescription": "Taxi Kremnica - Zoznam taxislu≈æieb v Kremnici. Overen√© taxi slu≈æby.",
      "keywords": [
        "taxi kremnica",
        "taxislu≈æba kremnica",
        "taxi v kremnici",
        "objedna≈• taxi kremnica",
        "taxi kremnica ceny"
      ],
      "taxiServices": [],
      "latitude": 48.705,
      "longitude": 18.9183
    },
    {
      "name": "Krupina",
      "slug": "krupina",
      "region": "Banskobystrick√Ω kraj",
      "description": "Jedno z najstar≈°√≠ch slovensk√Ωch miest. Vyberte si taxi v Krupine.",
      "metaDescription": "Taxi Krupina - Taxislu≈æby v Krupine. Spoƒæahliv√© taxi slu≈æby s kontaktmi.",
      "keywords": [
        "taxi krupina",
        "taxislu≈æba krupina",
        "taxi v krupine",
        "objedna≈• taxi krupina",
        "taxi krupina telef√≥n"
      ],
      "taxiServices": [],
      "latitude": 48.3567,
      "longitude": 19.0633
    },
    {
      "name": "Kysuck√© Nov√© Mesto",
      "slug": "kysucke-nove-mesto",
      "region": "≈Ωilinsk√Ω kraj",
      "description": "Okresn√© mesto na Kysuciach. N√°jdite taxi v Kysuckom Novom Meste.",
      "metaDescription": "Taxi Kysuck√© Nov√© Mesto - Kompletn√Ω prehƒæad taxislu≈æieb v Kysuckom Novom Meste. Taxi slu≈æby.",
      "keywords": [
        "taxi kysuck√© nov√© mesto",
        "taxislu≈æba kysuck√© nov√© mesto",
        "taxi v kysuckom novom meste",
        "objedna≈• taxi kysuce",
        "taxi knm"
      ],
      "taxiServices": [],
      "latitude": 49.3,
      "longitude": 18.7833
    },
    {
      "name": "Leopoldov",
      "slug": "leopoldov",
      "region": "Trnavsk√Ω kraj",
      "description": "Mesto s pevnos≈•ou v Trnavskom kraji. Objednajte si taxi v Leopoldove.",
      "metaDescription": "Taxi Leopoldov - Taxislu≈æby v Leopoldove. Overen√© taxi slu≈æby s kontaktmi.",
      "keywords": [
        "taxi leopoldov",
        "taxislu≈æba leopoldov",
        "taxi v leopoldove",
        "objedna≈• taxi leopoldov",
        "taxi leopoldov telef√≥n"
      ],
      "taxiServices": [],
      "latitude": 48.4433,
      "longitude": 17.7633
    },
    {
      "name": "Levoƒça",
      "slug": "levoca",
      "region": "Pre≈°ovsk√Ω kraj",
      "description": "Historick√© spi≈°≈°k√© mesto zap√≠san√© v UNESCO. N√°jdite taxi v Levoƒçi.",
      "metaDescription": "Taxi Levoƒça - Prehƒæad taxislu≈æieb v Levoƒçi. Spoƒæahliv√© taxi slu≈æby pre turistov a obyvateƒæov.",
      "keywords": [
        "taxi levoƒça",
        "taxislu≈æba levoƒça",
        "taxi v levoƒçi",
        "objedna≈• taxi levoƒça",
        "taxi levoƒça unesco"
      ],
      "taxiServices": [],
      "latitude": 49.02,
      "longitude": 20.5867
    },
    {
      "name": "Levice",
      "slug": "levice",
      "region": "Nitriansky kraj",
      "description": "Okresn√© mesto v Nitrianskom kraji s rozvinut√Ωmi taxislu≈æbami. Vyberte si taxi v Leviciach.",
      "metaDescription": "Taxi Levice - Kompletn√Ω zoznam taxislu≈æieb v Leviciach. R√Ωchle a spoƒæahliv√© taxi slu≈æby.",
      "keywords": [
        "taxi levice",
        "taxislu≈æba levice",
        "taxi v leviciach",
        "objedna≈• taxi levice",
        "taxi levice ceny"
      ],
      "taxiServices": [],
      "latitude": 48.2167,
      "longitude": 18.6
    },
    {
      "name": "Liptovsk√Ω Hr√°dok",
      "slug": "liptovsky-hradok",
      "region": "≈Ωilinsk√Ω kraj",
      "description": "Okresn√© mesto v Liptove. N√°jdite taxi v Liptovskom Hr√°dku.",
      "metaDescription": "Taxi Liptovsk√Ω Hr√°dok - Taxislu≈æby v Liptovskom Hr√°dku. Overen√© taxi slu≈æby.",
      "keywords": [
        "taxi liptovsk√Ω hr√°dok",
        "taxislu≈æba liptovsk√Ω hr√°dok",
        "taxi v liptovskom hr√°dku",
        "objedna≈• taxi liptov",
        "taxi hr√°dok"
      ],
      "taxiServices": [],
      "latitude": 49.0392,
      "longitude": 19.7281
    },
    {
      "name": "Liptovsk√Ω Mikul√°≈°",
      "slug": "liptovsky-mikulas",
      "region": "≈Ωilinsk√Ω kraj",
      "description": "Centrum Liptova s bohatou ponukou taxislu≈æieb. Objednajte si taxi v Liptovskom Mikul√°≈°i.",
      "metaDescription": "Taxi Liptovsk√Ω Mikul√°≈° - Kompletn√Ω prehƒæad taxislu≈æieb v Liptovskom Mikul√°≈°i. Spoƒæahliv√© taxi slu≈æby.",
      "keywords": [
        "taxi liptovsk√Ω mikul√°≈°",
        "taxislu≈æba liptovsk√Ω mikul√°≈°",
        "taxi v liptovskom mikul√°≈°i",
        "objedna≈• taxi liptov",
        "taxi mikul√°≈°"
      ],
      "taxiServices": [],
      "latitude": 49.08,
      "longitude": 19.6167
    },
    {
      "name": "Luƒçenec",
      "slug": "lucenec",
      "region": "Banskobystrick√Ω kraj",
      "description": "Okresn√© mesto v ju≈ænej ƒçasti stredn√©ho Slovenska. N√°jdite taxi v Luƒçenci.",
      "metaDescription": "Taxi Luƒçenec - Zoznam taxislu≈æieb v Luƒçenci. R√Ωchle a overen√© taxi slu≈æby.",
      "keywords": [
        "taxi luƒçenec",
        "taxislu≈æba luƒçenec",
        "taxi v luƒçenci",
        "objedna≈• taxi luƒçenec",
        "taxi luƒçenec telef√≥n"
      ],
      "taxiServices": [],
      "latitude": 48.33,
      "longitude": 19.665
    },
    {
      "name": "Malacky",
      "slug": "malacky",
      "region": "Bratislavsk√Ω kraj",
      "description": "Okresn√© mesto v Bratislavskom kraji. Vyberte si taxi v Malack√°ch.",
      "metaDescription": "Taxi Malacky - Taxislu≈æby v Malack√°ch. Spoƒæahliv√© taxi slu≈æby s kontaktmi.",
      "keywords": [
        "taxi malacky",
        "taxislu≈æba malacky",
        "taxi v malack√°ch",
        "objedna≈• taxi malacky",
        "taxi malacky ceny"
      ],
      "taxiServices": [],
      "latitude": 48.435,
      "longitude": 17.0217
    },
    {
      "name": "Martin",
      "slug": "martin",
      "region": "≈Ωilinsk√Ω kraj",
      "description": "Kult√∫rne centrum Slovenska s rozvinutou sie≈•ou taxislu≈æieb. Objednajte si taxi v Martine.",
      "metaDescription": "Taxi Martin - Prehƒæad taxislu≈æieb v Martine. Spoƒæahliv√© taxi slu≈æby s aktu√°lnymi kontaktmi a cenami.",
      "keywords": [
        "taxi martin",
        "taxislu≈æba martin",
        "taxi v martine",
        "objedna≈• taxi martin",
        "taxi martin cenn√≠k"
      ],
      "taxiServices": [],
      "latitude": 49.0639,
      "longitude": 18.9214
    },
    {
      "name": "Medzev",
      "slug": "medzev",
      "region": "Ko≈°ick√Ω kraj",
      "description": "Mal√© bansk√© mesto v Ko≈°ickom kraji. N√°jdite taxi v Medzeve.",
      "metaDescription": "Taxi Medzev - Taxislu≈æby v Medzeve. Taxi slu≈æby s kontaktmi.",
      "keywords": [
        "taxi medzev",
        "taxislu≈æba medzev",
        "taxi v medzeve",
        "objedna≈• taxi medzev",
        "taxi medzev telef√≥n"
      ],
      "taxiServices": [],
      "latitude": 48.705,
      "longitude": 20.9
    },
    {
      "name": "Medzilaborce",
      "slug": "medzilaborce",
      "region": "Pre≈°ovsk√Ω kraj",
      "description": "Okresn√© mesto vo v√Ωchodnej ƒçasti Slovenska. Objednajte si taxi v Medzilaborc√≠ch.",
      "metaDescription": "Taxi Medzilaborce - Zoznam taxislu≈æieb v Medzilaborc√≠ch. Overen√© taxi slu≈æby.",
      "keywords": [
        "taxi medzilaborce",
        "taxislu≈æba medzilaborce",
        "taxi v medzilaborc√≠ch",
        "objedna≈• taxi medzilaborce",
        "taxi medzilaborce ceny"
      ],
      "taxiServices": [],
      "latitude": 49.2717,
      "longitude": 21.9033
    },
    {
      "name": "Michalovce",
      "slug": "michalovce",
      "region": "Ko≈°ick√Ω kraj",
      "description": "Centrum regi√≥nu Zempl√≠n s kvalitnou ponukou taxislu≈æieb. N√°jdite taxi v Michalovciach.",
      "metaDescription": "Taxi Michalovce - Kompletn√Ω prehƒæad taxislu≈æieb v Michalovciach. R√Ωchle a spoƒæahliv√© taxi slu≈æby.",
      "keywords": [
        "taxi michalovce",
        "taxislu≈æba michalovce",
        "taxi v michalovciach",
        "objedna≈• taxi michalovce",
        "taxi michalovce telef√≥n"
      ],
      "taxiServices": [],
      "latitude": 48.755,
      "longitude": 21.92
    },
    {
      "name": "Modra",
      "slug": "modra",
      "region": "Bratislavsk√Ω kraj",
      "description": "Vin√°rske mesto v Malokarpatskom regi√≥ne. Vyberte si taxi v Modre.",
      "metaDescription": "Taxi Modra - Taxislu≈æby v Modre. Spoƒæahliv√© taxi slu≈æby pre obyvateƒæov a turistov.",
      "keywords": [
        "taxi modra",
        "taxislu≈æba modra",
        "taxi v modre",
        "objedna≈• taxi modra",
        "taxi modra v√≠no"
      ],
      "taxiServices": [],
      "latitude": 48.335,
      "longitude": 17.3067
    },
    {
      "name": "Modr√Ω Kame≈à",
      "slug": "modry-kamen",
      "region": "Banskobystrick√Ω kraj",
      "description": "Mesto s historick√Ωm hradom. N√°jdite taxi v Modrom Kameni.",
      "metaDescription": "Taxi Modr√Ω Kame≈à - Zoznam taxislu≈æieb v Modrom Kameni. Taxi slu≈æby s kontaktmi.",
      "keywords": [
        "taxi modr√Ω kame≈à",
        "taxislu≈æba modr√Ω kame≈à",
        "taxi v modrom kameni",
        "objedna≈• taxi modr√Ω kame≈à",
        "taxi kame≈à"
      ],
      "taxiServices": [],
      "latitude": 48.3767,
      "longitude": 19.2117
    },
    {
      "name": "Moldava nad Bodvou",
      "slug": "moldava-nad-bodvou",
      "region": "Ko≈°ick√Ω kraj",
      "description": "Okresn√© mesto v Ko≈°ickom kraji. Objednajte si taxi v Moldave nad Bodvou.",
      "metaDescription": "Taxi Moldava nad Bodvou - Taxislu≈æby v Moldave nad Bodvou. Overen√© taxi slu≈æby.",
      "keywords": [
        "taxi moldava nad bodvou",
        "taxislu≈æba moldava",
        "taxi v moldave",
        "objedna≈• taxi moldava",
        "taxi moldava telef√≥n"
      ],
      "taxiServices": [],
      "latitude": 48.6133,
      "longitude": 20.9967
    },
    {
      "name": "Myjava",
      "slug": "myjava",
      "region": "Trenƒçiansky kraj",
      "description": "Okresn√© mesto v regi√≥ne Myjava. N√°jdite spoƒæahliv√© taxi v Myjave.",
      "metaDescription": "Taxi Myjava - Kompletn√Ω zoznam taxislu≈æieb v Myjave. Taxi slu≈æby s kontaktmi.",
      "keywords": [
        "taxi myjava",
        "taxislu≈æba myjava",
        "taxi v myjave",
        "objedna≈• taxi myjava",
        "taxi myjava ceny"
      ],
      "taxiServices": [],
      "latitude": 48.7583,
      "longitude": 17.565
    },
    {
      "name": "N√°mestovo",
      "slug": "namestovo",
      "region": "≈Ωilinsk√Ω kraj",
      "description": "Okresn√© mesto v Orave pri Oravskej priehrade. Vyberte si taxi v N√°mestove.",
      "metaDescription": "Taxi N√°mestovo - Prehƒæad taxislu≈æieb v N√°mestove. Spoƒæahliv√© taxi slu≈æby.",
      "keywords": [
        "taxi n√°mestovo",
        "taxislu≈æba n√°mestovo",
        "taxi v n√°mestove",
        "objedna≈• taxi n√°mestovo",
        "taxi orava"
      ],
      "taxiServices": [],
      "latitude": 49.405,
      "longitude": 19.48
    },
    {
      "name": "Nesvady",
      "slug": "nesvady",
      "region": "Nitriansky kraj",
      "description": "Mesto v Nitrianskom kraji. N√°jdite taxi v Nesvadiach.",
      "metaDescription": "Taxi Nesvady - Taxislu≈æby v Nesvadiach. Taxi slu≈æby s kontaktmi.",
      "keywords": [
        "taxi nesvady",
        "taxislu≈æba nesvady",
        "taxi v nesvadiach",
        "objedna≈• taxi nesvady",
        "taxi nesvady telef√≥n"
      ],
      "taxiServices": []
    },
    {
      "name": "Nitra",
      "slug": "nitra",
      "region": "Nitriansky kraj",
      "description": "Historick√© mesto s modern√Ωmi taxislu≈æbami. Vyberte si spoƒæahliv√© taxi v Nitre pre pohodln√∫ dopravu.",
      "metaDescription": "Taxi Nitra - Spoƒæahliv√© taxislu≈æby v Nitre. Zoznam overen√Ωch taxi slu≈æieb s kontaktmi a inform√°ciami.",
      "keywords": [
        "taxi nitra",
        "taxislu≈æba nitra",
        "taxi v nitre",
        "objedna≈• taxi nitra",
        "taxi nitra telef√≥n"
      ],
      "taxiServices": [],
      "latitude": 48.3069,
      "longitude": 18.0872
    },
    {
      "name": "Nov√° Ba≈àa",
      "slug": "nova-bana",
      "region": "Banskobystrick√Ω kraj",
      "description": "Bansk√© mesto s bohatou hist√≥riou. Objednajte si taxi v Novej Bani.",
      "metaDescription": "Taxi Nov√° Ba≈àa - Zoznam taxislu≈æieb v Novej Bani. Overen√© taxi slu≈æby.",
      "keywords": [
        "taxi nov√° ba≈àa",
        "taxislu≈æba nov√° ba≈àa",
        "taxi v novej bani",
        "objedna≈• taxi nov√° ba≈àa",
        "taxi ba≈àa"
      ],
      "taxiServices": [],
      "latitude": 48.4217,
      "longitude": 18.635
    },
    {
      "name": "Nov√° Dubnica",
      "slug": "nova-dubnica",
      "region": "Trenƒçiansky kraj",
      "description": "Mesto v Trenƒçianskom kraji. N√°jdite taxi v Novej Dubnici.",
      "metaDescription": "Taxi Nov√° Dubnica - Taxislu≈æby v Novej Dubnici. Taxi slu≈æby s kontaktmi.",
      "keywords": [
        "taxi nov√° dubnica",
        "taxislu≈æba nov√° dubnica",
        "taxi v novej dubnici",
        "objedna≈• taxi dubnica",
        "taxi nov√° dubnica telef√≥n"
      ],
      "taxiServices": []
    },
    {
      "name": "Nov√°ky",
      "slug": "novaky",
      "region": "Trenƒçiansky kraj",
      "description": "Okresn√© mesto v regi√≥ne horn√° Nitra. Vyberte si taxi v Nov√°ky√°ch.",
      "metaDescription": "Taxi Nov√°ky - Kompletn√Ω prehƒæad taxislu≈æieb v Nov√°ky√°ch. Spoƒæahliv√© taxi slu≈æby.",
      "keywords": [
        "taxi nov√°ky",
        "taxislu≈æba nov√°ky",
        "taxi v nov√°ky√°ch",
        "objedna≈• taxi nov√°ky",
        "taxi nov√°ky ceny"
      ],
      "taxiServices": []
    },
    {
      "name": "Nov√© Mesto nad V√°hom",
      "slug": "nove-mesto-nad-vahom",
      "region": "Trenƒçiansky kraj",
      "description": "Okresn√© mesto v Trenƒçianskom kraji s rozvinut√Ωmi taxislu≈æbami. N√°jdite taxi v Novom Meste nad V√°hom.",
      "metaDescription": "Taxi Nov√© Mesto nad V√°hom - Prehƒæad taxislu≈æieb v Novom Meste nad V√°hom. R√Ωchle taxi slu≈æby.",
      "keywords": [
        "taxi nov√© mesto nad v√°hom",
        "taxislu≈æba nov√© mesto",
        "taxi v novom meste",
        "objedna≈• taxi nov√© mesto",
        "taxi nmn"
      ],
      "taxiServices": [],
      "latitude": 48.7583,
      "longitude": 17.8317
    },
    {
      "name": "Nov√© Z√°mky",
      "slug": "nove-zamky",
      "region": "Nitriansky kraj",
      "description": "Okresn√© mesto v ju≈ænej ƒçasti Slovenska. Objednajte si taxi v Nov√Ωch Z√°mkoch.",
      "metaDescription": "Taxi Nov√© Z√°mky - Kompletn√Ω zoznam taxislu≈æieb v Nov√Ωch Z√°mkoch. Spoƒæahliv√© taxi slu≈æby.",
      "keywords": [
        "taxi nov√© z√°mky",
        "taxislu≈æba nov√© z√°mky",
        "taxi v nov√Ωch z√°mkoch",
        "objedna≈• taxi nov√© z√°mky",
        "taxi nz"
      ],
      "taxiServices": [],
      "latitude": 47.9867,
      "longitude": 18.1617
    },
    {
      "name": "Partiz√°nske",
      "slug": "partizanske",
      "region": "Trenƒçiansky kraj",
      "description": "Mesto v Trenƒçianskom kraji. N√°jdite spoƒæahliv√© taxi v Partiz√°nskom.",
      "metaDescription": "Taxi Partiz√°nske - Taxislu≈æby v Partiz√°nskom. Overen√© taxi slu≈æby s kontaktmi.",
      "keywords": [
        "taxi partiz√°nske",
        "taxislu≈æba partiz√°nske",
        "taxi v partiz√°nskom",
        "objedna≈• taxi partiz√°nske",
        "taxi partiz√°nske telef√≥n"
      ],
      "taxiServices": [],
      "latitude": 48.6283,
      "longitude": 18.3767
    },
    {
      "name": "Pezinok",
      "slug": "pezinok",
      "region": "Bratislavsk√Ω kraj",
      "description": "Vin√°rske mesto v Malokarpatskom regi√≥ne. Vyberte si taxi v Pezinku.",
      "metaDescription": "Taxi Pezinok - Zoznam taxislu≈æieb v Pezinku. R√Ωchle a spoƒæahliv√© taxi slu≈æby.",
      "keywords": [
        "taxi pezinok",
        "taxislu≈æba pezinok",
        "taxi v pezinku",
        "objedna≈• taxi pezinok",
        "taxi pezinok ceny"
      ],
      "taxiServices": [],
      "latitude": 48.29,
      "longitude": 17.2667
    },
    {
      "name": "Pie≈°≈•any",
      "slug": "piestany",
      "region": "Trnavsk√Ω kraj",
      "description": "Najzn√°mej≈°ie k√∫peƒæn√© mesto Slovenska. N√°jdite taxi v Pie≈°≈•anoch.",
      "metaDescription": "Taxi Pie≈°≈•any - Kompletn√Ω prehƒæad taxislu≈æieb v Pie≈°≈•anoch. Taxi slu≈æby pre k√∫peƒæn√Ωch host√≠.",
      "keywords": [
        "taxi pie≈°≈•any",
        "taxislu≈æba pie≈°≈•any",
        "taxi v pie≈°≈•anoch",
        "objedna≈• taxi pie≈°≈•any",
        "taxi pie≈°≈•any k√∫pele"
      ],
      "taxiServices": [],
      "latitude": 48.5917,
      "longitude": 17.8258
    },
    {
      "name": "Polt√°r",
      "slug": "poltar",
      "region": "Banskobystrick√Ω kraj",
      "description": "Okresn√© mesto v Banskobystricom kraji. Objednajte si taxi v Polt√°ri.",
      "metaDescription": "Taxi Polt√°r - Taxislu≈æby v Polt√°ri. Spoƒæahliv√© taxi slu≈æby s kontaktmi.",
      "keywords": [
        "taxi polt√°r",
        "taxislu≈æba polt√°r",
        "taxi v polt√°ri",
        "objedna≈• taxi polt√°r",
        "taxi polt√°r telef√≥n"
      ],
      "taxiServices": [],
      "latitude": 48.4267,
      "longitude": 19.7967
    },
    {
      "name": "Poprad",
      "slug": "poprad",
      "region": "Pre≈°ovsk√Ω kraj",
      "description": "Br√°na Vysok√Ωch Tatier s dostupn√Ωmi taxislu≈æbami pre turistov aj obyvateƒæov. N√°jdite taxi v Poprade.",
      "metaDescription": "Taxi Poprad - Taxislu≈æby v Poprade a okol√≠ Vysok√Ωch Tatier. Overen√© taxi slu≈æby s kontaktmi.",
      "keywords": [
        "taxi poprad",
        "taxislu≈æba poprad",
        "taxi v poprade",
        "objedna≈• taxi poprad",
        "taxi poprad tatry"
      ],
      "taxiServices": [],
      "latitude": 49.0611,
      "longitude": 20.2975
    },
    {
      "name": "Pova≈æsk√° Bystrica",
      "slug": "povazska-bystrica",
      "region": "Trenƒçiansky kraj",
      "description": "Okresn√© mesto na strednom Pova≈æ√≠. N√°jdite taxi v Pova≈æskej Bystrici.",
      "metaDescription": "Taxi Pova≈æsk√° Bystrica - Prehƒæad taxislu≈æieb v Pova≈æskej Bystrici. R√Ωchle taxi slu≈æby.",
      "keywords": [
        "taxi pova≈æsk√° bystrica",
        "taxislu≈æba pova≈æsk√° bystrica",
        "taxi v pova≈æskej bystrici",
        "objedna≈• taxi bystrica",
        "taxi pb"
      ],
      "taxiServices": [],
      "latitude": 49.1217,
      "longitude": 18.4483
    },
    {
      "name": "Pre≈°ov",
      "slug": "presov",
      "region": "Pre≈°ovsk√Ω kraj",
      "description": "Centrum v√Ωchodn√©ho Slovenska s dostupn√Ωmi taxislu≈æbami pre obyvateƒæov aj n√°v≈°tevn√≠kov. N√°jdite taxi v Pre≈°ove.",
      "metaDescription": "Taxi Pre≈°ov - Zoznam taxislu≈æieb v Pre≈°ove. R√Ωchle a spoƒæahliv√© taxi slu≈æby s overen√Ωmi kontaktmi.",
      "keywords": [
        "taxi pre≈°ov",
        "taxislu≈æba pre≈°ov",
        "taxi v pre≈°ove",
        "objedna≈• taxi pre≈°ov",
        "taxi pre≈°ov telef√≥n"
      ],
      "taxiServices": [],
      "latitude": 48.9983,
      "longitude": 21.2392
    },
    {
      "name": "Prievidza",
      "slug": "prievidza",
      "region": "Trenƒçiansky kraj",
      "description": "Centrum hornej Nitry s kvalitnou ponukou taxislu≈æieb. Vyberte si spoƒæahliv√© taxi v Prievidzi.",
      "metaDescription": "Taxi Prievidza - Zoznam taxislu≈æieb v Prievidzi. R√Ωchle a spoƒæahliv√© taxi slu≈æby s overen√Ωmi kontaktmi.",
      "keywords": [
        "taxi prievidza",
        "taxislu≈æba prievidza",
        "taxi v prievidzi",
        "objedna≈• taxi prievidza",
        "taxi prievidza telef√≥n"
      ],
      "taxiServices": [],
      "latitude": 48.7742,
      "longitude": 18.6267
    },
    {
      "name": "P√∫chov",
      "slug": "puchov",
      "region": "Trenƒçiansky kraj",
      "description": "Okresn√© mesto v Trenƒçianskom kraji. Objednajte si taxi v P√∫chove.",
      "metaDescription": "Taxi P√∫chov - Kompletn√Ω zoznam taxislu≈æieb v P√∫chove. Spoƒæahliv√© taxi slu≈æby.",
      "keywords": [
        "taxi p√∫chov",
        "taxislu≈æba p√∫chov",
        "taxi v p√∫chove",
        "objedna≈• taxi p√∫chov",
        "taxi p√∫chov ceny"
      ],
      "taxiServices": [],
      "latitude": 49.1217,
      "longitude": 18.3267
    },
    {
      "name": "Rajec",
      "slug": "rajec",
      "region": "≈Ωilinsk√Ω kraj",
      "description": "Mesto v ≈Ωilinskom kraji. N√°jdite taxi v Rajci.",
      "metaDescription": "Taxi Rajec - Taxislu≈æby v Rajci. Overen√© taxi slu≈æby s kontaktmi.",
      "keywords": [
        "taxi rajec",
        "taxislu≈æba rajec",
        "taxi v rajci",
        "objedna≈• taxi rajec",
        "taxi rajec telef√≥n"
      ],
      "taxiServices": [],
      "latitude": 49.0817,
      "longitude": 18.6433
    },
    {
      "name": "Rev√∫ca",
      "slug": "revuca",
      "region": "Banskobystrick√Ω kraj",
      "description": "Okresn√© mesto v Banskobystricom kraji. Vyberte si taxi v Rev√∫cej.",
      "metaDescription": "Taxi Rev√∫ca - Prehƒæad taxislu≈æieb v Rev√∫cej. R√Ωchle a spoƒæahliv√© taxi slu≈æby.",
      "keywords": [
        "taxi rev√∫ca",
        "taxislu≈æba rev√∫ca",
        "taxi v rev√∫cej",
        "objedna≈• taxi rev√∫ca",
        "taxi rev√∫ca ceny"
      ],
      "taxiServices": [],
      "latitude": 48.6833,
      "longitude": 20.1167
    },
    {
      "name": "Rimavsk√° Sobota",
      "slug": "rimavska-sobota",
      "region": "Banskobystrick√Ω kraj",
      "description": "Okresn√© mesto v ju≈ænej ƒçasti stredn√©ho Slovenska. N√°jdite taxi v Rimavskej Sobote.",
      "metaDescription": "Taxi Rimavsk√° Sobota - Kompletn√Ω zoznam taxislu≈æieb v Rimavskej Sobote. Taxi slu≈æby s kontaktmi.",
      "keywords": [
        "taxi rimavsk√° sobota",
        "taxislu≈æba rimavsk√° sobota",
        "taxi v rimavskej sobote",
        "objedna≈• taxi rimavsk√° sobota",
        "taxi sobota"
      ],
      "taxiServices": [],
      "latitude": 48.3833,
      "longitude": 20.0167
    },
    {
      "name": "Ro≈æ≈àava",
      "slug": "roznava",
      "region": "Ko≈°ick√Ω kraj",
      "description": "Okresn√© mesto v regi√≥ne Gemer. Objednajte si taxi v Ro≈æ≈àave.",
      "metaDescription": "Taxi Ro≈æ≈àava - Taxislu≈æby v Ro≈æ≈àave. Spoƒæahliv√© taxi slu≈æby s overen√Ωmi kontaktmi.",
      "keywords": [
        "taxi ro≈æ≈àava",
        "taxislu≈æba ro≈æ≈àava",
        "taxi v ro≈æ≈àave",
        "objedna≈• taxi ro≈æ≈àava",
        "taxi ro≈æ≈àava telef√≥n"
      ],
      "taxiServices": [],
      "latitude": 48.66,
      "longitude": 20.5317
    },
    {
      "name": "Ru≈æomberok",
      "slug": "ruzomberok",
      "region": "≈Ωilinsk√Ω kraj",
      "description": "Okresn√© mesto v Liptove s rozvinut√Ωmi taxislu≈æbami. N√°jdite taxi v Ru≈æomberku.",
      "metaDescription": "Taxi Ru≈æomberok - Prehƒæad taxislu≈æieb v Ru≈æomberku. R√Ωchle a overen√© taxi slu≈æby.",
      "keywords": [
        "taxi ru≈æomberok",
        "taxislu≈æba ru≈æomberok",
        "taxi v ru≈æomberku",
        "objedna≈• taxi ru≈æomberok",
        "taxi ru≈æomberok ceny"
      ],
      "taxiServices": [],
      "latitude": 49.08,
      "longitude": 19.305
    },
    {
      "name": "Sabinov",
      "slug": "sabinov",
      "region": "Pre≈°ovsk√Ω kraj",
      "description": "Okresn√© mesto v Pre≈°ovskom kraji. Vyberte si taxi v Sabinove.",
      "metaDescription": "Taxi Sabinov - Kompletn√Ω zoznam taxislu≈æieb v Sabinove. Spoƒæahliv√© taxi slu≈æby.",
      "keywords": [
        "taxi sabinov",
        "taxislu≈æba sabinov",
        "taxi v sabinove",
        "objedna≈• taxi sabinov",
        "taxi sabinov telef√≥n"
      ],
      "taxiServices": [],
      "latitude": 49.1017,
      "longitude": 21.0983
    },
    {
      "name": "Senec",
      "slug": "senec",
      "region": "Bratislavsk√Ω kraj",
      "description": "Mesto pri Slneƒçn√Ωch jazer√°ch. N√°jdite taxi v Senci.",
      "metaDescription": "Taxi Senec - Taxislu≈æby v Senci. Overen√© taxi slu≈æby pre obyvateƒæov a turistov.",
      "keywords": [
        "taxi senec",
        "taxislu≈æba senec",
        "taxi v senci",
        "objedna≈• taxi senec",
        "taxi senec jazer√°"
      ],
      "taxiServices": [],
      "latitude": 48.22,
      "longitude": 17.4
    },
    {
      "name": "Senica",
      "slug": "senica",
      "region": "Trnavsk√Ω kraj",
      "description": "Okresn√© mesto v Z√°hor√≠. Objednajte si taxi v Senici.",
      "metaDescription": "Taxi Senica - Prehƒæad taxislu≈æieb v Senici. R√Ωchle a spoƒæahliv√© taxi slu≈æby.",
      "keywords": [
        "taxi senica",
        "taxislu≈æba senica",
        "taxi v senici",
        "objedna≈• taxi senica",
        "taxi senica ceny"
      ],
      "taxiServices": [],
      "latitude": 48.68,
      "longitude": 17.3667
    },
    {
      "name": "Sereƒè",
      "slug": "sered",
      "region": "Trnavsk√Ω kraj",
      "description": "Okresn√© mesto v Trnavskom kraji. N√°jdite spoƒæahliv√© taxi v Seredi.",
      "metaDescription": "Taxi Sereƒè - Kompletn√Ω zoznam taxislu≈æieb v Seredi. Taxi slu≈æby s kontaktmi.",
      "keywords": [
        "taxi sereƒè",
        "taxislu≈æba sereƒè",
        "taxi v seredi",
        "objedna≈• taxi sereƒè",
        "taxi sereƒè telef√≥n"
      ],
      "taxiServices": []
    },
    {
      "name": "Skalica",
      "slug": "skalica",
      "region": "Trnavsk√Ω kraj",
      "description": "Historick√© pohraniƒçn√© mesto v Z√°hor√≠. Vyberte si taxi v Skalici.",
      "metaDescription": "Taxi Skalica - Taxislu≈æby v Skalici. Spoƒæahliv√© taxi slu≈æby s overen√Ωmi kontaktmi.",
      "keywords": [
        "taxi skalica",
        "taxislu≈æba skalica",
        "taxi v skalici",
        "objedna≈• taxi skalica",
        "taxi skalica ceny"
      ],
      "taxiServices": [],
      "latitude": 48.845,
      "longitude": 17.2283
    },
    {
      "name": "Sl√°dkoviƒçovo",
      "slug": "sladkovicovo",
      "region": "Trnavsk√Ω kraj",
      "description": "Mesto v Trnavskom kraji. N√°jdite taxi v Sl√°dkoviƒçove.",
      "metaDescription": "Taxi Sl√°dkoviƒçovo - Zoznam taxislu≈æieb v Sl√°dkoviƒçove. Taxi slu≈æby s kontaktmi.",
      "keywords": [
        "taxi sl√°dkoviƒçovo",
        "taxislu≈æba sl√°dkoviƒçovo",
        "taxi v sl√°dkoviƒçove",
        "objedna≈• taxi sl√°dkoviƒçovo",
        "taxi sl√°dkoviƒçovo telef√≥n"
      ],
      "taxiServices": [],
      "latitude": 48.2,
      "longitude": 17.6333
    },
    {
      "name": "Sliaƒç",
      "slug": "sliac",
      "region": "Banskobystrick√Ω kraj",
      "description": "K√∫peƒæn√© mesto s letiskom. Objednajte si taxi v Sliaƒçi.",
      "metaDescription": "Taxi Sliaƒç - Taxislu≈æby v Sliaƒçi. Overen√© taxi slu≈æby pre k√∫peƒæn√Ωch host√≠.",
      "keywords": [
        "taxi sliaƒç",
        "taxislu≈æba sliaƒç",
        "taxi v sliaƒçi",
        "objedna≈• taxi sliaƒç",
        "taxi sliaƒç letisko"
      ],
      "taxiServices": [],
      "latitude": 48.6417,
      "longitude": 19.145
    },
    {
      "name": "Snina",
      "slug": "snina",
      "region": "Pre≈°ovsk√Ω kraj",
      "description": "Okresn√© mesto vo v√Ωchodnej ƒçasti Slovenska. N√°jdite taxi v Snine.",
      "metaDescription": "Taxi Snina - Kompletn√Ω prehƒæad taxislu≈æieb v Snine. Spoƒæahliv√© taxi slu≈æby.",
      "keywords": [
        "taxi snina",
        "taxislu≈æba snina",
        "taxi v snine",
        "objedna≈• taxi snina",
        "taxi snina ceny"
      ],
      "taxiServices": [],
      "latitude": 48.99,
      "longitude": 22.15
    },
    {
      "name": "Sobrance",
      "slug": "sobrance",
      "region": "Ko≈°ick√Ω kraj",
      "description": "Okresn√© mesto vo v√Ωchodnej ƒçasti Slovenska. Vyberte si taxi v Sobranciach.",
      "metaDescription": "Taxi Sobrance - Taxislu≈æby v Sobranciach. R√Ωchle taxi slu≈æby s kontaktmi.",
      "keywords": [
        "taxi sobrance",
        "taxislu≈æba sobrance",
        "taxi v sobranciach",
        "objedna≈• taxi sobrance",
        "taxi sobrance telef√≥n"
      ],
      "taxiServices": [],
      "latitude": 48.745,
      "longitude": 22.1817
    },
    {
      "name": "Spi≈°sk√° Bel√°",
      "slug": "spisska-bela",
      "region": "Pre≈°ovsk√Ω kraj",
      "description": "Historick√© mesto v regi√≥ne Spi≈°. N√°jdite taxi v Spi≈°skej Belej.",
      "metaDescription": "Taxi Spi≈°sk√° Bel√° - Prehƒæad taxislu≈æieb v Spi≈°skej Belej. Taxi slu≈æby s kontaktmi.",
      "keywords": [
        "taxi spi≈°sk√° bel√°",
        "taxislu≈æba spi≈°sk√° bel√°",
        "taxi v spi≈°skej belej",
        "objedna≈• taxi bel√°",
        "taxi spi≈°"
      ],
      "taxiServices": [],
      "latitude": 49.1833,
      "longitude": 20.4667
    },
    {
      "name": "Spi≈°sk√° Nov√° Ves",
      "slug": "spisska-nova-ves",
      "region": "Ko≈°ick√Ω kraj",
      "description": "Centrum regi√≥nu Spi≈° s rozvinut√Ωmi taxislu≈æbami. Objednajte si taxi v Spi≈°skej Novej Vsi.",
      "metaDescription": "Taxi Spi≈°sk√° Nov√° Ves - Kompletn√Ω zoznam taxislu≈æieb v Spi≈°skej Novej Vsi. Spoƒæahliv√© taxi slu≈æby.",
      "keywords": [
        "taxi spi≈°sk√° nov√° ves",
        "taxislu≈æba spi≈°sk√° nov√° ves",
        "taxi v spi≈°skej novej vsi",
        "objedna≈• taxi snv",
        "taxi spi≈°"
      ],
      "taxiServices": [],
      "latitude": 48.945,
      "longitude": 20.5683
    },
    {
      "name": "Spi≈°sk√° Star√° Ves",
      "slug": "spisska-stara-ves",
      "region": "Pre≈°ovsk√Ω kraj",
      "description": "Mesto v regi√≥ne Spi≈°. N√°jdite taxi v Spi≈°skej Starej Vsi.",
      "metaDescription": "Taxi Spi≈°sk√° Star√° Ves - Taxislu≈æby v Spi≈°skej Starej Vsi. Taxi slu≈æby s kontaktmi.",
      "keywords": [
        "taxi spi≈°sk√° star√° ves",
        "taxislu≈æba spi≈°sk√° star√° ves",
        "taxi v spi≈°skej starej vsi",
        "objedna≈• taxi ssv",
        "taxi spi≈°"
      ],
      "taxiServices": []
    },
    {
      "name": "Spi≈°sk√© Podhradie",
      "slug": "spisske-podhradie",
      "region": "Pre≈°ovsk√Ω kraj",
      "description": "Historick√© mesto pod Spi≈°sk√Ωm hradom zap√≠san√© v UNESCO. Vyberte si taxi v Spi≈°skom Podhrad√≠.",
      "metaDescription": "Taxi Spi≈°sk√© Podhradie - Zoznam taxislu≈æieb v Spi≈°skom Podhrad√≠. Taxi slu≈æby pre turistov.",
      "keywords": [
        "taxi spi≈°sk√© podhradie",
        "taxislu≈æba spi≈°sk√© podhradie",
        "taxi v spi≈°skom podhrad√≠",
        "objedna≈• taxi podhradie",
        "taxi spi≈°"
      ],
      "taxiServices": [],
      "latitude": 49.0017,
      "longitude": 20.75
    },
    {
      "name": "Spi≈°sk√© Vlachy",
      "slug": "spisske-vlachy",
      "region": "Ko≈°ick√Ω kraj",
      "description": "Mesto v regi√≥ne Spi≈°. N√°jdite taxi v Spi≈°sk√Ωch Vlachoch.",
      "metaDescription": "Taxi Spi≈°sk√© Vlachy - Taxislu≈æby v Spi≈°sk√Ωch Vlachoch. Overen√© taxi slu≈æby.",
      "keywords": [
        "taxi spi≈°sk√© vlachy",
        "taxislu≈æba spi≈°sk√© vlachy",
        "taxi v spi≈°sk√Ωch vlachoch",
        "objedna≈• taxi vlachy",
        "taxi spi≈°"
      ],
      "taxiServices": []
    },
    {
      "name": "Star√° ƒΩubov≈àa",
      "slug": "stara-lubovna",
      "region": "Pre≈°ovsk√Ω kraj",
      "description": "Okresn√© mesto v regi√≥ne Zamagurie. Objednajte si taxi v Starej ƒΩubovni.",
      "metaDescription": "Taxi Star√° ƒΩubov≈àa - Kompletn√Ω prehƒæad taxislu≈æieb v Starej ƒΩubovni. Spoƒæahliv√© taxi slu≈æby.",
      "keywords": [
        "taxi star√° ƒæubov≈àa",
        "taxislu≈æba star√° ƒæubov≈àa",
        "taxi v starej ƒæubovni",
        "objedna≈• taxi ƒæubov≈àa",
        "taxi zamagurie"
      ],
      "taxiServices": []
    },
    {
      "name": "Star√° Tur√°",
      "slug": "stara-tura",
      "region": "Trenƒçiansky kraj",
      "description": "Okresn√© mesto v Trenƒçianskom kraji. N√°jdite taxi v Starej Turej.",
      "metaDescription": "Taxi Star√° Tur√° - Taxislu≈æby v Starej Turej. R√Ωchle taxi slu≈æby s kontaktmi.",
      "keywords": [
        "taxi star√° tur√°",
        "taxislu≈æba star√° tur√°",
        "taxi v starej turej",
        "objedna≈• taxi star√° tur√°",
        "taxi tur√°"
      ],
      "taxiServices": []
    },
    {
      "name": "Str√°≈æske",
      "slug": "strazske",
      "region": "Ko≈°ick√Ω kraj",
      "description": "Mesto v Ko≈°ickom kraji. Vyberte si taxi v Str√°≈æskom.",
      "metaDescription": "Taxi Str√°≈æske - Prehƒæad taxislu≈æieb v Str√°≈æskom. Taxi slu≈æby s kontaktmi.",
      "keywords": [
        "taxi str√°≈æske",
        "taxislu≈æba str√°≈æske",
        "taxi v str√°≈æskom",
        "objedna≈• taxi str√°≈æske",
        "taxi str√°≈æske telef√≥n"
      ],
      "taxiServices": []
    },
    {
      "name": "Stropkov",
      "slug": "stropkov",
      "region": "Pre≈°ovsk√Ω kraj",
      "description": "Okresn√© mesto v Pre≈°ovskom kraji. N√°jdite taxi v Stropkove.",
      "metaDescription": "Taxi Stropkov - Kompletn√Ω zoznam taxislu≈æieb v Stropkove. Overen√© taxi slu≈æby.",
      "keywords": [
        "taxi stropkov",
        "taxislu≈æba stropkov",
        "taxi v stropkove",
        "objedna≈• taxi stropkov",
        "taxi stropkov ceny"
      ],
      "taxiServices": []
    },
    {
      "name": "Stupava",
      "slug": "stupava",
      "region": "Bratislavsk√Ω kraj",
      "description": "Mesto v bl√≠zkosti Bratislavy. Objednajte si taxi v Stupave.",
      "metaDescription": "Taxi Stupava - Taxislu≈æby v Stupave. Spoƒæahliv√© taxi slu≈æby s kontaktmi.",
      "keywords": [
        "taxi stupava",
        "taxislu≈æba stupava",
        "taxi v stupave",
        "objedna≈• taxi stupava",
        "taxi stupava telef√≥n"
      ],
      "taxiServices": []
    },
    {
      "name": "Sv√§t√Ω Jur",
      "slug": "svaty-jur",
      "region": "Bratislavsk√Ω kraj",
      "description": "Vin√°rske mesto v Malokarpatskom regi√≥ne. N√°jdite taxi vo Sv√§tom Jure.",
      "metaDescription": "Taxi Sv√§t√Ω Jur - Prehƒæad taxislu≈æieb vo Sv√§tom Jure. Taxi slu≈æby pre obyvateƒæov a turistov.",
      "keywords": [
        "taxi sv√§t√Ω jur",
        "taxislu≈æba sv√§t√Ω jur",
        "taxi vo sv√§tom jure",
        "objedna≈• taxi sv√§t√Ω jur",
        "taxi v√≠no"
      ],
      "taxiServices": []
    },
    {
      "name": "Svidn√≠k",
      "slug": "svidnik",
      "region": "Pre≈°ovsk√Ω kraj",
      "description": "Okresn√© mesto v Pre≈°ovskom kraji. Vyberte si taxi v Svidn√≠ku.",
      "metaDescription": "Taxi Svidn√≠k - Zoznam taxislu≈æieb v Svidn√≠ku. R√Ωchle a spoƒæahliv√© taxi slu≈æby.",
      "keywords": [
        "taxi svidn√≠k",
        "taxislu≈æba svidn√≠k",
        "taxi v svidn√≠ku",
        "objedna≈• taxi svidn√≠k",
        "taxi svidn√≠k ceny"
      ],
      "taxiServices": []
    },
    {
      "name": "Svit",
      "slug": "svit",
      "region": "Pre≈°ovsk√Ω kraj",
      "description": "Mesto pri Poprade v bl√≠zkosti Tatier. N√°jdite taxi v Svite.",
      "metaDescription": "Taxi Svit - Taxislu≈æby v Svite. Overen√© taxi slu≈æby s kontaktmi.",
      "keywords": [
        "taxi svit",
        "taxislu≈æba svit",
        "taxi v svite",
        "objedna≈• taxi svit",
        "taxi svit tatry"
      ],
      "taxiServices": []
    },
    {
      "name": "≈†ahy",
      "slug": "sahy",
      "region": "Nitriansky kraj",
      "description": "Okresn√© mesto v ju≈ænej ƒçasti Slovenska. Objednajte si taxi v ≈†ah√°ch.",
      "metaDescription": "Taxi ≈†ahy - Kompletn√Ω prehƒæad taxislu≈æieb v ≈†ah√°ch. Spoƒæahliv√© taxi slu≈æby.",
      "keywords": [
        "taxi ≈°ahy",
        "taxislu≈æba ≈°ahy",
        "taxi v ≈°ah√°ch",
        "objedna≈• taxi ≈°ahy",
        "taxi ≈°ahy telef√≥n"
      ],
      "taxiServices": [],
      "latitude": 48.0783,
      "longitude": 18.9467
    },
    {
      "name": "≈†aƒæa",
      "slug": "sala",
      "region": "Nitriansky kraj",
      "description": "Okresn√© mesto v Nitrianskom kraji. N√°jdite taxi v ≈†ali.",
      "metaDescription": "Taxi ≈†aƒæa - Prehƒæad taxislu≈æieb v ≈†ali. R√Ωchle a overen√© taxi slu≈æby.",
      "keywords": [
        "taxi ≈°aƒæa",
        "taxislu≈æba ≈°aƒæa",
        "taxi v ≈°ali",
        "objedna≈• taxi ≈°aƒæa",
        "taxi ≈°aƒæa ceny"
      ],
      "taxiServices": [],
      "latitude": 48.1517,
      "longitude": 17.8817
    },
    {
      "name": "≈†amor√≠n",
      "slug": "samorin",
      "region": "Trnavsk√Ω kraj",
      "description": "Mesto pri Dunaji v bl√≠zkosti Bratislavy. Vyberte si taxi v ≈†amor√≠ne.",
      "metaDescription": "Taxi ≈†amor√≠n - Kompletn√Ω zoznam taxislu≈æieb v ≈†amor√≠ne. Taxi slu≈æby s kontaktmi.",
      "keywords": [
        "taxi ≈°amor√≠n",
        "taxislu≈æba ≈°amor√≠n",
        "taxi v ≈°amor√≠ne",
        "objedna≈• taxi ≈°amor√≠n",
        "taxi ≈°amor√≠n telef√≥n"
      ],
      "taxiServices": []
    },
    {
      "name": "≈†a≈°t√≠n-Str√°≈æe",
      "slug": "sastin-straze",
      "region": "Trnavsk√Ω kraj",
      "description": "P√∫tnick√© mesto v Trnavskom kraji. N√°jdite taxi v ≈†a≈°t√≠ne-Str√°≈æach.",
      "metaDescription": "Taxi ≈†a≈°t√≠n-Str√°≈æe - Taxislu≈æby v ≈†a≈°t√≠ne-Str√°≈æach. Overen√© taxi slu≈æby.",
      "keywords": [
        "taxi ≈°a≈°t√≠n-str√°≈æe",
        "taxislu≈æba ≈°a≈°t√≠n",
        "taxi v ≈°a≈°t√≠ne",
        "objedna≈• taxi ≈°a≈°t√≠n",
        "taxi bazilika"
      ],
      "taxiServices": []
    },
    {
      "name": "≈†t√∫rovo",
      "slug": "sturovo",
      "region": "Nitriansky kraj",
      "description": "Pohraniƒçn√© mesto pri Dunaji. Objednajte si taxi v ≈†t√∫rove.",
      "metaDescription": "Taxi ≈†t√∫rovo - Prehƒæad taxislu≈æieb v ≈†t√∫rove. Spoƒæahliv√© taxi slu≈æby s kontaktmi.",
      "keywords": [
        "taxi ≈°t√∫rovo",
        "taxislu≈æba ≈°t√∫rovo",
        "taxi v ≈°t√∫rove",
        "objedna≈• taxi ≈°t√∫rovo",
        "taxi ≈°t√∫rovo dunaj"
      ],
      "taxiServices": [],
      "latitude": 47.795,
      "longitude": 18.7167
    },
    {
      "name": "≈†urany",
      "slug": "surany",
      "region": "Nitriansky kraj",
      "description": "Okresn√© mesto v Nitrianskom kraji. N√°jdite taxi v ≈†uranoch.",
      "metaDescription": "Taxi ≈†urany - Zoznam taxislu≈æieb v ≈†uranoch. R√Ωchle taxi slu≈æby s kontaktmi.",
      "keywords": [
        "taxi ≈°urany",
        "taxislu≈æba ≈°urany",
        "taxi v ≈°uranoch",
        "objedna≈• taxi ≈°urany",
        "taxi ≈°urany telef√≥n"
      ],
      "taxiServices": [],
      "latitude": 48.0833,
      "longitude": 18.1833
    },
    {
      "name": "Tisovec",
      "slug": "tisovec",
      "region": "Banskobystrick√Ω kraj",
      "description": "Mesto v Gemeri. Vyberte si taxi v Tisovci.",
      "metaDescription": "Taxi Tisovec - Taxislu≈æby v Tisovci. Overen√© taxi slu≈æby s kontaktmi.",
      "keywords": [
        "taxi tisovec",
        "taxislu≈æba tisovec",
        "taxi v tisovci",
        "objedna≈• taxi tisovec",
        "taxi tisovec ceny"
      ],
      "taxiServices": []
    },
    {
      "name": "Tlmaƒçe",
      "slug": "tlmace",
      "region": "Nitriansky kraj",
      "description": "Mesto v Nitrianskom kraji. N√°jdite taxi v Tlmaƒçoch.",
      "metaDescription": "Taxi Tlmaƒçe - Kompletn√Ω prehƒæad taxislu≈æieb v Tlmaƒçoch. Taxi slu≈æby s kontaktmi.",
      "keywords": [
        "taxi tlmaƒçe",
        "taxislu≈æba tlmaƒçe",
        "taxi v tlmaƒçoch",
        "objedna≈• taxi tlmaƒçe",
        "taxi tlmaƒçe telef√≥n"
      ],
      "taxiServices": []
    },
    {
      "name": "Trebi≈°ov",
      "slug": "trebisov",
      "region": "Ko≈°ick√Ω kraj",
      "description": "Okresn√© mesto v regi√≥ne Zempl√≠n. Objednajte si taxi v Trebi≈°ove.",
      "metaDescription": "Taxi Trebi≈°ov - Prehƒæad taxislu≈æieb v Trebi≈°ove. Spoƒæahliv√© taxi slu≈æby s overen√Ωmi kontaktmi.",
      "keywords": [
        "taxi trebi≈°ov",
        "taxislu≈æba trebi≈°ov",
        "taxi v trebi≈°ove",
        "objedna≈• taxi trebi≈°ov",
        "taxi trebi≈°ov ceny"
      ],
      "taxiServices": [],
      "latitude": 48.6283,
      "longitude": 21.72
    },
    {
      "name": "Trenƒç√≠n",
      "slug": "trencin",
      "region": "Trenƒçiansky kraj",
      "description": "Mesto pod Trenƒçianskym hradom s kvalitnou dopravnou infra≈°trukt√∫rou. N√°jdite taxi v Trenƒç√≠ne.",
      "metaDescription": "Taxi Trenƒç√≠n - Kompletn√Ω zoznam taxislu≈æieb v Trenƒç√≠ne. R√Ωchle objednanie taxi s overen√Ωmi kontaktmi.",
      "keywords": [
        "taxi trenƒç√≠n",
        "taxislu≈æba trenƒç√≠n",
        "taxi v trenƒç√≠ne",
        "objedna≈• taxi trenƒç√≠n",
        "taxi trenƒç√≠n telef√≥n"
      ],
      "taxiServices": [],
      "latitude": 48.895,
      "longitude": 18.0444
    },
    {
      "name": "Trenƒçianske Teplice",
      "slug": "trencianske-teplice",
      "region": "Trenƒçiansky kraj",
      "description": "K√∫peƒæn√© mesto v Trenƒçianskom kraji. N√°jdite taxi v Trenƒçianskych Tepliciach.",
      "metaDescription": "Taxi Trenƒçianske Teplice - Taxislu≈æby v Trenƒçianskych Tepliciach. Taxi slu≈æby pre k√∫peƒæn√Ωch host√≠.",
      "keywords": [
        "taxi trenƒçianske teplice",
        "taxislu≈æba trenƒçianske teplice",
        "taxi v trenƒçianskych tepliciach",
        "objedna≈• taxi teplice",
        "taxi k√∫pele"
      ],
      "taxiServices": [],
      "latitude": 48.9117,
      "longitude": 18.1717
    },
    {
      "name": "Trnava",
      "slug": "trnava",
      "region": "Trnavsk√Ω kraj",
      "description": "Mal√Ω R√≠m Slovenska s dostupn√Ωmi taxislu≈æbami. Vyberte si spoƒæahliv√© taxi v Trnave pre va≈°u cestu.",
      "metaDescription": "Taxi Trnava - Zoznam taxislu≈æieb v Trnave. Spoƒæahliv√© a overen√© taxi slu≈æby s kontaktmi.",
      "keywords": [
        "taxi trnava",
        "taxislu≈æba trnava",
        "taxi v trnave",
        "objedna≈• taxi trnava",
        "taxi trnava ceny"
      ],
      "taxiServices": [],
      "latitude": 48.3774,
      "longitude": 17.588
    },
    {
      "name": "Trsten√°",
      "slug": "trstena",
      "region": "≈Ωilinsk√Ω kraj",
      "description": "Okresn√© mesto v Orave. Objednajte si taxi v Trstenej.",
      "metaDescription": "Taxi Trsten√° - Zoznam taxislu≈æieb v Trstenej. Overen√© taxi slu≈æby s kontaktmi.",
      "keywords": [
        "taxi trsten√°",
        "taxislu≈æba trsten√°",
        "taxi v trstenej",
        "objedna≈• taxi trsten√°",
        "taxi orava"
      ],
      "taxiServices": []
    },
    {
      "name": "Turany",
      "slug": "turany",
      "region": "≈Ωilinsk√Ω kraj",
      "description": "Mesto s letiskom v ≈Ωilinskom kraji. N√°jdite taxi v Turanoch.",
      "metaDescription": "Taxi Turany - Taxislu≈æby v Turanoch. Taxi slu≈æby pre letisko a okolie.",
      "keywords": [
        "taxi turany",
        "taxislu≈æba turany",
        "taxi v turanoch",
        "objedna≈• taxi turany",
        "taxi letisko turany"
      ],
      "taxiServices": []
    },
    {
      "name": "Turƒçianske Teplice",
      "slug": "turcianske-teplice",
      "region": "≈Ωilinsk√Ω kraj",
      "description": "K√∫peƒæn√© mesto v ≈Ωilinskom kraji. Vyberte si taxi v Turƒçianskych Tepliciach.",
      "metaDescription": "Taxi Turƒçianske Teplice - Kompletn√Ω prehƒæad taxislu≈æieb v Turƒçianskych Tepliciach. Taxi slu≈æby pre k√∫pele.",
      "keywords": [
        "taxi turƒçianske teplice",
        "taxislu≈æba turƒçianske teplice",
        "taxi v turƒçianskych tepliciach",
        "objedna≈• taxi teplice",
        "taxi k√∫pele"
      ],
      "taxiServices": [],
      "latitude": 48.8617,
      "longitude": 18.8633
    },
    {
      "name": "Turzovka",
      "slug": "turzovka",
      "region": "≈Ωilinsk√Ω kraj",
      "description": "Mesto na Kysuciach. N√°jdite taxi v Turzovke.",
      "metaDescription": "Taxi Turzovka - Prehƒæad taxislu≈æieb v Turzovke. Taxi slu≈æby s kontaktmi.",
      "keywords": [
        "taxi turzovka",
        "taxislu≈æba turzovka",
        "taxi v turzovke",
        "objedna≈• taxi turzovka",
        "taxi kysuce"
      ],
      "taxiServices": []
    },
    {
      "name": "Veƒæk√© Kapu≈°any",
      "slug": "velke-kapusany",
      "region": "Ko≈°ick√Ω kraj",
      "description": "Okresn√© mesto vo v√Ωchodnej ƒçasti Slovenska. Objednajte si taxi vo Veƒæk√Ωch Kapu≈°anoch.",
      "metaDescription": "Taxi Veƒæk√© Kapu≈°any - Taxislu≈æby vo Veƒæk√Ωch Kapu≈°anoch. Overen√© taxi slu≈æby.",
      "keywords": [
        "taxi veƒæk√© kapu≈°any",
        "taxislu≈æba veƒæk√© kapu≈°any",
        "taxi vo veƒæk√Ωch kapu≈°anoch",
        "objedna≈• taxi kapu≈°any",
        "taxi kapu≈°any"
      ],
      "taxiServices": [],
      "latitude": 48.5467,
      "longitude": 22.0833
    },
    {
      "name": "Veƒæk√Ω Krt√≠≈°",
      "slug": "velky-krtis",
      "region": "Banskobystrick√Ω kraj",
      "description": "Okresn√© mesto v ju≈ænej ƒçasti stredn√©ho Slovenska. N√°jdite taxi vo Veƒækom Krt√≠≈°i.",
      "metaDescription": "Taxi Veƒæk√Ω Krt√≠≈° - Zoznam taxislu≈æieb vo Veƒækom Krt√≠≈°i. Spoƒæahliv√© taxi slu≈æby.",
      "keywords": [
        "taxi veƒæk√Ω krt√≠≈°",
        "taxislu≈æba veƒæk√Ω krt√≠≈°",
        "taxi vo veƒækom krt√≠≈°i",
        "objedna≈• taxi krt√≠≈°",
        "taxi krt√≠≈°"
      ],
      "taxiServices": [],
      "latitude": 48.2083,
      "longitude": 19.3467
    },
    {
      "name": "Veƒæk√Ω Meder",
      "slug": "velky-meder",
      "region": "Nitriansky kraj",
      "description": "Mesto v ju≈ænej ƒçasti Slovenska. Vyberte si taxi vo Veƒækom Mederi.",
      "metaDescription": "Taxi Veƒæk√Ω Meder - Kompletn√Ω prehƒæad taxislu≈æieb vo Veƒækom Mederi. Taxi slu≈æby s kontaktmi.",
      "keywords": [
        "taxi veƒæk√Ω meder",
        "taxislu≈æba veƒæk√Ω meder",
        "taxi vo veƒækom mederi",
        "objedna≈• taxi meder",
        "taxi meder"
      ],
      "taxiServices": [],
      "latitude": 47.8617,
      "longitude": 17.7667
    },
    {
      "name": "Veƒæk√Ω ≈†ari≈°",
      "slug": "velky-saris",
      "region": "Pre≈°ovsk√Ω kraj",
      "description": "Mesto v bl√≠zkosti Pre≈°ova. N√°jdite taxi vo Veƒækom ≈†ari≈°i.",
      "metaDescription": "Taxi Veƒæk√Ω ≈†ari≈° - Taxislu≈æby vo Veƒækom ≈†ari≈°i. Overen√© taxi slu≈æby s kontaktmi.",
      "keywords": [
        "taxi veƒæk√Ω ≈°ari≈°",
        "taxislu≈æba veƒæk√Ω ≈°ari≈°",
        "taxi vo veƒækom ≈°ari≈°i",
        "objedna≈• taxi ≈°ari≈°",
        "taxi ≈°ari≈°"
      ],
      "taxiServices": []
    },
    {
      "name": "Vranov nad Topƒæou",
      "slug": "vranov-nad-toplou",
      "region": "Pre≈°ovsk√Ω kraj",
      "description": "Okresn√© mesto v Pre≈°ovskom kraji. Objednajte si taxi vo Vranove nad Topƒæou.",
      "metaDescription": "Taxi Vranov nad Topƒæou - Prehƒæad taxislu≈æieb vo Vranove nad Topƒæou. Spoƒæahliv√© taxi slu≈æby.",
      "keywords": [
        "taxi vranov nad topƒæou",
        "taxislu≈æba vranov",
        "taxi vo vranove",
        "objedna≈• taxi vranov",
        "taxi vranov telef√≥n"
      ],
      "taxiServices": [],
      "latitude": 48.8917,
      "longitude": 21.6833
    },
    {
      "name": "Vr√°ble",
      "slug": "vrable",
      "region": "Nitriansky kraj",
      "description": "Okresn√© mesto v Nitrianskom kraji. N√°jdite taxi vo Vr√°bloch.",
      "metaDescription": "Taxi Vr√°ble - Kompletn√Ω zoznam taxislu≈æieb vo Vr√°bloch. R√Ωchle taxi slu≈æby.",
      "keywords": [
        "taxi vr√°ble",
        "taxislu≈æba vr√°ble",
        "taxi vo vr√°bloch",
        "objedna≈• taxi vr√°ble",
        "taxi vr√°ble ceny"
      ],
      "taxiServices": [],
      "latitude": 48.2433,
      "longitude": 18.3067
    },
    {
      "name": "Vrbov√©",
      "slug": "vrbove",
      "region": "Trnavsk√Ω kraj",
      "description": "Mesto v Trnavskom kraji. Vyberte si taxi vo Vrbovom.",
      "metaDescription": "Taxi Vrbov√© - Taxislu≈æby vo Vrbovom. Overen√© taxi slu≈æby s kontaktmi.",
      "keywords": [
        "taxi vrbov√©",
        "taxislu≈æba vrbov√©",
        "taxi vo vrbovom",
        "objedna≈• taxi vrbov√©",
        "taxi vrbov√© telef√≥n"
      ],
      "taxiServices": []
    },
    {
      "name": "Vr√∫tky",
      "slug": "vrutky",
      "region": "≈Ωilinsk√Ω kraj",
      "description": "Mesto v ≈Ωilinskom kraji s rozvinutou ≈æelezniƒçnou dopravou. N√°jdite taxi vo Vr√∫tkach.",
      "metaDescription": "Taxi Vr√∫tky - Prehƒæad taxislu≈æieb vo Vr√∫tkach. Spoƒæahliv√© taxi slu≈æby s kontaktmi.",
      "keywords": [
        "taxi vr√∫tky",
        "taxislu≈æba vr√∫tky",
        "taxi vo vr√∫tkach",
        "objedna≈• taxi vr√∫tky",
        "taxi vr√∫tky stanica"
      ],
      "taxiServices": []
    },
    {
      "name": "Vysok√© Tatry",
      "slug": "vysoke-tatry",
      "region": "Pre≈°ovsk√Ω kraj",
      "description": "Turistick√© mesto vo Vysok√Ωch Tatr√°ch. Objednajte si taxi vo Vysok√Ωch Tatr√°ch.",
      "metaDescription": "Taxi Vysok√© Tatry - Kompletn√Ω zoznam taxislu≈æieb vo Vysok√Ωch Tatr√°ch. Taxi slu≈æby pre turistov.",
      "keywords": [
        "taxi vysok√© tatry",
        "taxislu≈æba vysok√© tatry",
        "taxi vo vysok√Ωch tatr√°ch",
        "objedna≈• taxi tatry",
        "taxi tatry"
      ],
      "taxiServices": [],
      "latitude": 49.1819,
      "longitude": 20.2181
    },
    {
      "name": "Zlat√© Moravce",
      "slug": "zlate-moravce",
      "region": "Nitriansky kraj",
      "description": "Okresn√© mesto v Nitrianskom kraji. N√°jdite taxi v Zlat√Ωch Moravciach.",
      "metaDescription": "Taxi Zlat√© Moravce - Taxislu≈æby v Zlat√Ωch Moravciach. R√Ωchle a overen√© taxi slu≈æby.",
      "keywords": [
        "taxi zlat√© moravce",
        "taxislu≈æba zlat√© moravce",
        "taxi v zlat√Ωch moravciach",
        "objedna≈• taxi zlat√© moravce",
        "taxi moravce"
      ],
      "taxiServices": [],
      "latitude": 48.385,
      "longitude": 18.4
    },
    {
      "name": "Zvolen",
      "slug": "zvolen",
      "region": "Banskobystrick√Ω kraj",
      "description": "Historick√© mesto so spoƒæahliv√Ωmi taxislu≈æbami. N√°jdite si overen√© taxi vo Zvolene pre pohodln√∫ dopravu.",
      "metaDescription": "Taxi Zvolen - Kompletn√Ω prehƒæad taxislu≈æieb vo Zvolene. Spoƒæahliv√© taxi slu≈æby s kontaktmi a inform√°ciami.",
      "keywords": [
        "taxi zvolen",
        "taxislu≈æba zvolen",
        "taxi vo zvolene",
        "objedna≈• taxi zvolen",
        "taxi zvolen ceny"
      ],
      "taxiServices": [
        {
          "name": "Le≈°≈• Taxi (vojensk√Ω obvod)",
          "website": "www.lesttaxi.com",
          "phone": "+421 902 048 583"
        },
        {
          "name": "Europa Taxi Zvolen",
          "website": "www.eutaxi.sk",
          "phone": "+421 908 599 909"
        },
        {
          "name": "VIP Taxi Zvolen",
          "website": "www.viptaxizv.sk",
          "phone": "+421 917 388 888"
        },
        {
          "name": "AIR TAXI ZVOLEN",
          "website": "https://airtaxizvolen.sk/",
          "phone": "+421 905 891 958"
        },
        {
          "name": "Taxi Zvolen",
          "website": "www.taxizvolen.eu",
          "phone": "+421 905 921 070"
        },
        {
          "name": "Star Taxi Zvolen",
          "website": "https://maps.google.com/?cid=4351691881399156335",
          "phone": "+421 905 579 050"
        },
        {
          "name": "EKO TAXI - Zvolen",
          "website": "www.ekotaxi.sk",
          "phone": "+421 917 100 707"
        },
        {
          "name": "PP Taxi Zvolen",
          "website": "http://www.pptaxi.sk",
          "phone": "+421 908 616 666"
        },
        {
          "name": "ONE TAXI Zvolen ",
          "website": "https://www.instagram.com/one_taxi_zvolen/",
          "phone": "+421 948 369 369"
        },
        {
          "name": "TOP TAXI Zvolen",
          "website": "https://toptaxizvolen.sk/",
          "phone": "+421 950 600 700"
        }
      ],
      "latitude": 48.575,
      "longitude": 19.12
    },
    {
      "name": "≈Ωarnovica",
      "slug": "zarnovica",
      "region": "Banskobystrick√Ω kraj",
      "description": "Okresn√© mesto v Banskobystricky kraji. Vyberte si taxi v ≈Ωarnovici.",
      "metaDescription": "Taxi ≈Ωarnovica - Prehƒæad taxislu≈æieb v ≈Ωarnovici. Taxi slu≈æby s kontaktmi.",
      "keywords": [
        "taxi ≈æarnovica",
        "taxislu≈æba ≈æarnovica",
        "taxi v ≈æarnovici",
        "objedna≈• taxi ≈æarnovica",
        "taxi ≈æarnovica telef√≥n"
      ],
      "taxiServices": [],
      "latitude": 48.4767,
      "longitude": 18.7167
    },
    {
      "name": "≈Ωeliezovce",
      "slug": "zeliezovce",
      "region": "Nitriansky kraj",
      "description": "Okresn√© mesto v Nitrianskom kraji. N√°jdite taxi v ≈Ωeliezovciach.",
      "metaDescription": "Taxi ≈Ωeliezovce - Kompletn√Ω zoznam taxislu≈æieb v ≈Ωeliezovciach. Overen√© taxi slu≈æby.",
      "keywords": [
        "taxi ≈æeliezovce",
        "taxislu≈æba ≈æeliezovce",
        "taxi v ≈æeliezovciach",
        "objedna≈• taxi ≈æeliezovce",
        "taxi ≈æeliezovce ceny"
      ],
      "taxiServices": []
    },
    {
      "name": "≈Ωiar nad Hronom",
      "slug": "ziar-nad-hronom",
      "region": "Banskobystrick√Ω kraj",
      "description": "Okresn√© mesto v Banskobystricky kraji. Objednajte si taxi v ≈Ωiari nad Hronom.",
      "metaDescription": "Taxi ≈Ωiar nad Hronom - Taxislu≈æby v ≈Ωiari nad Hronom. Spoƒæahliv√© taxi slu≈æby s kontaktmi.",
      "keywords": [
        "taxi ≈æiar nad hronom",
        "taxislu≈æba ≈æiar",
        "taxi v ≈æiari",
        "objedna≈• taxi ≈æiar",
        "taxi ≈æiar telef√≥n"
      ],
      "taxiServices": [],
      "latitude": 48.59,
      "longitude": 18.855
    },
    {
      "name": "≈Ωilina",
      "slug": "zilina",
      "region": "≈Ωilinsk√Ω kraj",
      "description": "V√Ωznamn√© mesto severn√©ho Slovenska s rozvinutou sie≈•ou taxislu≈æieb. Objednajte si taxi v ≈Ωiline jednoduchom.",
      "metaDescription": "Taxi ≈Ωilina - Kompletn√Ω prehƒæad taxislu≈æieb v ≈Ωiline. N√°jdite si overen√© taxi r√Ωchlo a jednoducho.",
      "keywords": [
        "taxi ≈æilina",
        "taxislu≈æba ≈æilina",
        "taxi v ≈æiline",
        "objedna≈• taxi ≈æilina",
        "taxi ≈æilina cenn√≠k"
      ],
      "taxiServices": [],
      "latitude": 49.2203,
      "longitude": 18.7392
    }
  ]
}